{
  "optimization_results": {
    "clusters": [
      {
        "name": "Thuvarankurichi",
        "total_milk": 5880,
        "capacity": 15000,
        "lat": 10.4952185964871,
        "lng": 78.34557317488415,
        "vehicles": [
          {
            "id": "droppable-0-0",
            "type": "TN56ST1256",
            "vehicle_number": "TN56ST1256",
            "farmers": [
              {
                "id": "Thuvarankurichi-v1-f0",
                "name": "Nalliah",
                "milk_liters": 12,
                "lat": 10.299167757073603,
                "lng": 78.19530072318109,
                "location": "Near Pudukkottai, Tamil Nadu"
              },
              {
                "id": "Thuvarankurichi-v0-f0",
                "name": "Kalimuthu",
                "milk_liters": 45,
                "lat": 10.291905386040206,
                "lng": 78.15943165799777,
                "location": "Near Pudukkottai, Tamil Nadu"
              },
              {
                "id": "Thuvarankurichi-v0-f1",
                "name": "Gopalakrishnan",
                "milk_liters": 27,
                "lat": 10.046984473526631,
                "lng": 78.15517400016383,
                "location": "Near Madurai, Tamil Nadu"
              },
              {
                "id": "Thuvarankurichi-v0-f2",
                "name": "Senthilkumar",
                "milk_liters": 40,
                "lat": 10.305530884215647,
                "lng": 78.47700089794319,
                "location": "Near Viralimalai, Tamil Nadu"
              },
              {
                "id": "Thuvarankurichi-v0-f3",
                "name": "Ganesan",
                "milk_liters": 17,
                "lat": 10.105892003384731,
                "lng": 78.18205145990834,
                "location": "Near Madurai, Tamil Nadu"
              },
              {
                "id": "Thuvarankurichi-v0-f4",
                "name": "Ramu",
                "milk_liters": 15,
                "lat": 10.075260537638492,
                "lng": 78.26546594897168,
                "location": "Near Madurai, Tamil Nadu"
              },
              {
                "id": "Thuvarankurichi-v0-f5",
                "name": "Muthusamy",
                "milk_liters": 43,
                "lat": 10.433746545061833,
                "lng": 78.32582904979357,
                "location": "Near Dindigul, Tamil Nadu"
              },
              {
                "id": "Thuvarankurichi-v0-f6",
                "name": "Nadarajan",
                "milk_liters": 33,
                "lat": 10.010486094221584,
                "lng": 78.03866170408457,
                "location": "Near Madurai, Tamil Nadu"
              },
              {
                "id": "Thuvarankurichi-v0-f7",
                "name": "Karuppusamy",
                "milk_liters": 40,
                "lat": 10.479180898575141,
                "lng": 78.16951925802253,
                "location": "Near Pudukkottai, Tamil Nadu"
              }
            ],
            "total_milk": 272,
            "capacity": 2800,
            "distance": 25,
            "travel_time": 127,
            "utilization": 100
          },
          {
            "id": "droppable-0-1",
            "type": "CAT_F011",
            "vehicle_number": "CAT_F011",
            "farmers": [
              {
                "id": "Thuvarankurichi-v1-f1",
                "name": "Manickam",
                "milk_liters": 29,
                "lat": 10.179976414691769,
                "lng": 78.07282432391398,
                "location": "Near Madurai, Tamil Nadu"
              },
              {
                "id": "Thuvarankurichi-v1-f2",
                "name": "Thirumalai",
                "milk_liters": 26,
                "lat": 10.244325288379981,
                "lng": 78.39602999683201,
                "location": "Near Viralimalai, Tamil Nadu"
              },
              {
                "id": "Thuvarankurichi-v1-f3",
                "name": "Murugan",
                "milk_liters": 14,
                "lat": 10.160290178465502,
                "lng": 78.38289558810335,
                "location": "Near Madurai, Tamil Nadu"
              },
              {
                "id": "Thuvarankurichi-v1-f4",
                "name": "Vellaiyappan",
                "milk_liters": 23,
                "lat": 10.350175167795483,
                "lng": 78.35991561826228,
                "location": "Near Viralimalai, Tamil Nadu"
              },
              {
                "id": "Thuvarankurichi-v1-f5",
                "name": "Kothandaraman",
                "milk_liters": 37,
                "lat": 10.381253014428728,
                "lng": 78.38025029528923,
                "location": "Near Viralimalai, Tamil Nadu"
              },
              {
                "id": "Thuvarankurichi-v1-f6",
                "name": "Veeramani",
                "milk_liters": 30,
                "lat": 10.27445870560765,
                "lng": 78.36509195085335,
                "location": "Near Viralimalai, Tamil Nadu"
              },
              {
                "id": "Thuvarankurichi-v1-f7",
                "name": "Anbalagan",
                "milk_liters": 16,
                "lat": 10.275211257015526,
                "lng": 78.38130639808578,
                "location": "Near Viralimalai, Tamil Nadu"
              },
              {
                "id": "Thuvarankurichi-v1-f8",
                "name": "Karunanidhi",
                "milk_liters": 35,
                "lat": 10.315589742937695,
                "lng": 78.25962720248579,
                "location": "Near Dindigul, Tamil Nadu"
              },
              {
                "id": "Thuvarankurichi-v1-f9",
                "name": "Karthikeyan",
                "milk_liters": 26,
                "lat": 10.211436765557272,
                "lng": 78.08058004932715,
                "location": "Near Pudukkottai, Tamil Nadu"
              }
            ],
            "total_milk": 236,
            "capacity": 2680,
            "distance": 59,
            "travel_time": 116,
            "utilization": 100
          },
          {
            "id": "droppable-0-2",
            "type": "TN13ST7896",
            "vehicle_number": "TN13ST7896",
            "farmers": [
              {
                "id": "Thuvarankurichi-v2-f0",
                "name": "Rajadurai",
                "milk_liters": 44,
                "lat": 10.240361080792141,
                "lng": 78.13139100740355,
                "location": "Near Pudukkottai, Tamil Nadu"
              },
              {
                "id": "Thuvarankurichi-v2-f1",
                "name": "Veerapandi",
                "milk_liters": 12,
                "lat": 10.096944611422611,
                "lng": 78.40340752209487,
                "location": "Near Madurai, Tamil Nadu"
              }
            ],
            "total_milk": 400,
            "capacity": 1200,
            "distance": 36.81,
            "travel_time": 39.24,
            "utilization": 33.33333333333333
          }
        ],
        "stats": {
          "vehiclesUsed": 3,
          "totalAssignedMilk": 908,
          "fullnessPercent": 6.05,
          "lowUtilized": [
            {
              "vehicle_number": "TN13ST7896",
              "pct": 33.33
            }
          ]
        }
      },
      {
        "name": "Viralimalai",
        "total_milk": 2840,
        "capacity": 9000,
        "lat": 10.577610053793954,
        "lng": 78.25391537337867,
        "vehicles": [
          {
            "id": "droppable-1-0",
            "type": "TN12SV1485",
            "vehicle_number": "TN12SV1485",
            "farmers": [
              {
                "id": "Viralimalai-v0-f0",
                "name": "Kumarasamy",
                "milk_liters": 38,
                "lat": 10.027632129833787,
                "lng": 78.33661313006884,
                "location": "Near Madurai, Tamil Nadu"
              },
              {
                "id": "Viralimalai-v0-f1",
                "name": "Sivaraj",
                "milk_liters": 26,
                "lat": 10.250181950561826,
                "lng": 78.2347007570245,
                "location": "Near Dindigul, Tamil Nadu"
              },
              {
                "id": "Viralimalai-v0-f2",
                "name": "Mariappan",
                "milk_liters": 35,
                "lat": 10.317729218906932,
                "lng": 78.04702751991269,
                "location": "Near Pudukkottai, Tamil Nadu"
              },
              {
                "id": "Viralimalai-v0-f3",
                "name": "Muthuraman",
                "milk_liters": 31,
                "lat": 10.350009801473908,
                "lng": 78.04015964409362,
                "location": "Near Pudukkottai, Tamil Nadu"
              },
              {
                "id": "Viralimalai-v0-f4",
                "name": "Ponnusamy",
                "milk_liters": 48,
                "lat": 10.126895956505045,
                "lng": 78.44653375051072,
                "location": "Near Madurai, Tamil Nadu"
              },
              {
                "id": "Viralimalai-v0-f5",
                "name": "Ramasamy",
                "milk_liters": 32,
                "lat": 10.49598174849008,
                "lng": 78.34537593865434,
                "location": "Near Dindigul, Tamil Nadu"
              },
              {
                "id": "Viralimalai-v0-f6",
                "name": "Arumugham",
                "milk_liters": 24,
                "lat": 10.277805548598318,
                "lng": 78.2018175363493,
                "location": "Near Dindigul, Tamil Nadu"
              },
              {
                "id": "Viralimalai-v0-f7",
                "name": "Perumal",
                "milk_liters": 22,
                "lat": 10.441585770600222,
                "lng": 78.09760156593202,
                "location": "Near Pudukkottai, Tamil Nadu"
              }
            ],
            "total_milk": 2600,
            "capacity": 2600,
            "distance": 128.54,
            "travel_time": 137.45,
            "utilization": 100
          },
          {
            "id": "droppable-1-1",
            "type": "CAT_F013",
            "vehicle_number": "CAT_F013",
            "farmers": [
              {
                "id": "Viralimalai-v1-f0",
                "name": "Venkatasamy",
                "milk_liters": 34,
                "lat": 10.336073327596672,
                "lng": 78.41290600167586,
                "location": "Near Viralimalai, Tamil Nadu"
              }
            ],
            "total_milk": 240,
            "capacity": 1200,
            "distance": 30.54,
            "travel_time": 40.55,
            "utilization": 20
          }
        ],
        "stats": {
          "vehiclesUsed": 2,
          "totalAssignedMilk": 2840,
          "fullnessPercent": 31.56,
          "lowUtilized": [
            {
              "vehicle_number": "CAT_F013",
              "pct": 20
            }
          ]
        }
      },
      {
        "name": "Melur",
        "total_milk": 9440,
        "capacity": 18000,
        "lat": 10.408788171142637,
        "lng": 78.03011558587772,
        "vehicles": [
          {
            "id": "droppable-2-0",
            "type": "CAT_F019",
            "vehicle_number": "CAT_F019",
            "farmers": [
              {
                "id": "Melur-v0-f0",
                "name": "Muthupandi",
                "milk_liters": 24,
                "lat": 10.100376759878896,
                "lng": 78.22284949877552,
                "location": "Near Madurai, Tamil Nadu"
              },
              {
                "id": "Melur-v0-f1",
                "name": "Rajalakshmi",
                "milk_liters": 27,
                "lat": 10.291628881272986,
                "lng": 78.17085222125947,
                "location": "Near Pudukkottai, Tamil Nadu"
              },
              {
                "id": "Melur-v0-f2",
                "name": "Rajendran",
                "milk_liters": 38,
                "lat": 10.073793233097675,
                "lng": 78.21816713970497,
                "location": "Near Madurai, Tamil Nadu"
              },
              {
                "id": "Melur-v0-f3",
                "name": "Arulnithi",
                "milk_liters": 13,
                "lat": 10.127568937205249,
                "lng": 78.42304057869794,
                "location": "Near Madurai, Tamil Nadu"
              },
              {
                "id": "Melur-v0-f4",
                "name": "Kamalakannan",
                "milk_liters": 10,
                "lat": 10.118017434465287,
                "lng": 78.06017167754592,
                "location": "Near Madurai, Tamil Nadu"
              },
              {
                "id": "Melur-v0-f5",
                "name": "Marimuthu",
                "milk_liters": 21,
                "lat": 10.242096924839823,
                "lng": 78.4818155502074,
                "location": "Near Viralimalai, Tamil Nadu"
              },
              {
                "id": "Melur-v0-f6",
                "name": "Ayyappan",
                "milk_liters": 10,
                "lat": 10.229322957004165,
                "lng": 78.42471026799224,
                "location": "Near Viralimalai, Tamil Nadu"
              },
              {
                "id": "Melur-v0-f7",
                "name": "Tharshan",
                "milk_liters": 17,
                "lat": 10.394177679987454,
                "lng": 78.12854102578994,
                "location": "Near Pudukkottai, Tamil Nadu"
              },
              {
                "id": "Melur-v0-f8",
                "name": "Sathish",
                "milk_liters": 18,
                "lat": 10.248750273434409,
                "lng": 78.19432092921818,
                "location": "Near Pudukkottai, Tamil Nadu"
              },
              {
                "id": "Melur-v0-f9",
                "name": "Manikavalan",
                "milk_liters": 11,
                "lat": 10.252182296076157,
                "lng": 78.2749828225806,
                "location": "Near Dindigul, Tamil Nadu"
              },
              {
                "id": "Melur-v0-f10",
                "name": "Karuppaiah",
                "milk_liters": 14,
                "lat": 10.306720084479618,
                "lng": 78.23218195931241,
                "location": "Near Dindigul, Tamil Nadu"
              },
              {
                "id": "Melur-v0-f11",
                "name": "Aravind",
                "milk_liters": 19,
                "lat": 10.139957318712998,
                "lng": 78.04528542130217,
                "location": "Near Madurai, Tamil Nadu"
              },
              {
                "id": "Melur-v0-f12",
                "name": "Velan",
                "milk_liters": 18,
                "lat": 10.20212354086935,
                "lng": 78.27919118573902,
                "location": "Near Dindigul, Tamil Nadu"
              },
              {
                "id": "Melur-v0-f13",
                "name": "Gokul",
                "milk_liters": 10,
                "lat": 10.115255267268493,
                "lng": 78.19251355156257,
                "location": "Near Madurai, Tamil Nadu"
              },
              {
                "id": "Melur-v0-f14",
                "name": "Arokiyasamy",
                "milk_liters": 30,
                "lat": 10.421591383610833,
                "lng": 78.3126539267606,
                "location": "Near Dindigul, Tamil Nadu"
              },
              {
                "id": "Melur-v0-f15",
                "name": "Pugalendhi",
                "milk_liters": 27,
                "lat": 10.312505275051343,
                "lng": 78.44775436945966,
                "location": "Near Viralimalai, Tamil Nadu"
              },
              {
                "id": "Melur-v0-f16",
                "name": "Raghuraman",
                "milk_liters": 39,
                "lat": 10.326146853038862,
                "lng": 78.1152082040812,
                "location": "Near Pudukkottai, Tamil Nadu"
              },
              {
                "id": "Melur-v0-f17",
                "name": "Jeevan",
                "milk_liters": 26,
                "lat": 10.26368576438826,
                "lng": 78.25552551410428,
                "location": "Near Dindigul, Tamil Nadu"
              }
            ],
            "total_milk": 5920,
            "capacity": 5920,
            "distance": 85.05,
            "travel_time": 112.33,
            "utilization": 100
          },
          {
            "id": "droppable-2-1",
            "type": "CAT_F009",
            "vehicle_number": "CAT_F009",
            "farmers": [
              {
                "id": "Melur-v1-f0",
                "name": "Chidambaram",
                "milk_liters": 29,
                "lat": 10.397019933567929,
                "lng": 78.24981801670671,
                "location": "Near Dindigul, Tamil Nadu"
              },
              {
                "id": "Melur-v1-f1",
                "name": "Ramasubramanian",
                "milk_liters": 23,
                "lat": 10.056735641571578,
                "lng": 78.36432253393392,
                "location": "Near Madurai, Tamil Nadu"
              },
              {
                "id": "Melur-v1-f2",
                "name": "Muthiah",
                "milk_liters": 49,
                "lat": 10.497069961456289,
                "lng": 78.01397875740734,
                "location": "Near Pudukkottai, Tamil Nadu"
              },
              {
                "id": "Melur-v1-f3",
                "name": "Anand",
                "milk_liters": 11,
                "lat": 10.425055213660645,
                "lng": 78.37452558271181,
                "location": "Near Dindigul, Tamil Nadu"
              },
              {
                "id": "Melur-v1-f4",
                "name": "Balamurugan",
                "milk_liters": 11,
                "lat": 10.393210559613626,
                "lng": 78.08867323011147,
                "location": "Near Pudukkottai, Tamil Nadu"
              },
              {
                "id": "Melur-v1-f5",
                "name": "Thanvanth",
                "milk_liters": 24,
                "lat": 10.377547973734481,
                "lng": 78.30056675228964,
                "location": "Near Viralimalai, Tamil Nadu"
              },
              {
                "id": "Melur-v1-f6",
                "name": "Sivasamy",
                "milk_liters": 45,
                "lat": 10.173502601127499,
                "lng": 78.26608714746726,
                "location": "Near Madurai, Tamil Nadu"
              },
              {
                "id": "Melur-v1-f7",
                "name": "Periyasamy",
                "milk_liters": 30,
                "lat": 10.13622851127654,
                "lng": 78.2358724978545,
                "location": "Near Madurai, Tamil Nadu"
              }
            ],
            "total_milk": 2080,
            "capacity": 2080,
            "distance": 57.96,
            "travel_time": 71.72,
            "utilization": 100
          },
          {
            "id": "droppable-2-2",
            "type": "CAT_F007",
            "vehicle_number": "CAT_F007",
            "farmers": [
              {
                "id": "Melur-v2-f0",
                "name": "Chandran",
                "milk_liters": 11,
                "lat": 10.212970410489119,
                "lng": 78.00862794573158,
                "location": "Near Pudukkottai, Tamil Nadu"
              },
              {
                "id": "Melur-v2-f1",
                "name": "Sathiya",
                "milk_liters": 19,
                "lat": 10.36210433799702,
                "lng": 78.04980025730953,
                "location": "Near Pudukkottai, Tamil Nadu"
              },
              {
                "id": "Melur-v2-f2",
                "name": "Ramalingam",
                "milk_liters": 17,
                "lat": 10.322390753584418,
                "lng": 78.39985425787114,
                "location": "Near Viralimalai, Tamil Nadu"
              },
              {
                "id": "Melur-v2-f3",
                "name": "Periyapalan",
                "milk_liters": 44,
                "lat": 10.204322909617524,
                "lng": 78.31850397424789,
                "location": "Near Viralimalai, Tamil Nadu"
              },
              {
                "id": "Melur-v2-f4",
                "name": "Siva",
                "milk_liters": 39,
                "lat": 10.473921987691254,
                "lng": 78.32206896181184,
                "location": "Near Dindigul, Tamil Nadu"
              },
              {
                "id": "Melur-v2-f5",
                "name": "Mani",
                "milk_liters": 10,
                "lat": 10.397393097474366,
                "lng": 78.19597185170153,
                "location": "Near Pudukkottai, Tamil Nadu"
              },
              {
                "id": "Melur-v2-f6",
                "name": "Prabhakar",
                "milk_liters": 46,
                "lat": 10.122649631082586,
                "lng": 78.46327715069613,
                "location": "Near Madurai, Tamil Nadu"
              }
            ],
            "total_milk": 1440,
            "capacity": 1520,
            "distance": 77.94,
            "travel_time": 92.99,
            "utilization": 94.73684210526315
          }
        ],
        "stats": {
          "vehiclesUsed": 3,
          "totalAssignedMilk": 9440,
          "fullnessPercent": 52.44,
          "lowUtilized": []
        }
      },
      {
        "name": "Madurai",
        "total_milk": 8080,
        "capacity": 25000,
        "lat": 10.318675268882405,
        "lng": 78.29135715423908,
        "vehicles": [
          {
            "id": "droppable-3-0",
            "type": "CAT_F020",
            "vehicle_number": "CAT_F020",
            "farmers": [
              {
                "id": "Madurai-v0-f0",
                "name": "Karuthapandi",
                "milk_liters": 21,
                "lat": 10.062431786341916,
                "lng": 78.3567948130691,
                "location": "Near Madurai, Tamil Nadu"
              },
              {
                "id": "Madurai-v0-f1",
                "name": "Kaliyaperumal",
                "milk_liters": 23,
                "lat": 10.104061532679731,
                "lng": 78.3255800529718,
                "location": "Near Madurai, Tamil Nadu"
              },
              {
                "id": "Madurai-v0-f2",
                "name": "Venkataraman",
                "milk_liters": 11,
                "lat": 10.200003658913655,
                "lng": 78.49448757188132,
                "location": "Near Viralimalai, Tamil Nadu"
              },
              {
                "id": "Madurai-v0-f3",
                "name": "Selvakumar",
                "milk_liters": 11,
                "lat": 10.244748564117055,
                "lng": 78.33415149538718,
                "location": "Near Viralimalai, Tamil Nadu"
              },
              {
                "id": "Madurai-v0-f4",
                "name": "Jayanthan",
                "milk_liters": 19,
                "lat": 10.164021134165784,
                "lng": 78.19136292998837,
                "location": "Near Madurai, Tamil Nadu"
              },
              {
                "id": "Madurai-v0-f5",
                "name": "Ramajayan",
                "milk_liters": 13,
                "lat": 10.32179409146575,
                "lng": 78.34299100667931,
                "location": "Near Viralimalai, Tamil Nadu"
              },
              {
                "id": "Madurai-v0-f6",
                "name": "Ramarajan",
                "milk_liters": 12,
                "lat": 10.204515506632823,
                "lng": 78.07483907726316,
                "location": "Near Pudukkottai, Tamil Nadu"
              },
              {
                "id": "Madurai-v0-f7",
                "name": "Mahalingam",
                "milk_liters": 46,
                "lat": 10.032407416064515,
                "lng": 78.02112800363558,
                "location": "Near Madurai, Tamil Nadu"
              },
              {
                "id": "Madurai-v0-f8",
                "name": "Jagadeesan",
                "milk_liters": 44,
                "lat": 10.011951858727265,
                "lng": 78.00576733855863,
                "location": "Near Madurai, Tamil Nadu"
              },
              {
                "id": "Madurai-v0-f9",
                "name": "Palanisamy",
                "milk_liters": 17,
                "lat": 10.308461503257428,
                "lng": 78.02099974747678,
                "location": "Near Pudukkottai, Tamil Nadu"
              },
              {
                "id": "Madurai-v0-f10",
                "name": "Selvaraj",
                "milk_liters": 24,
                "lat": 10.360053993049606,
                "lng": 78.17288278385699,
                "location": "Near Pudukkottai, Tamil Nadu"
              },
              {
                "id": "Madurai-v0-f11",
                "name": "Kandasamy",
                "milk_liters": 47,
                "lat": 10.327067889926857,
                "lng": 78.15185008755873,
                "location": "Near Pudukkottai, Tamil Nadu"
              },
              {
                "id": "Madurai-v0-f12",
                "name": "Krishnamoorthy",
                "milk_liters": 43,
                "lat": 10.104516899125164,
                "lng": 78.0422860271126,
                "location": "Near Madurai, Tamil Nadu"
              },
              {
                "id": "Madurai-v0-f13",
                "name": "Shankar",
                "milk_liters": 43,
                "lat": 10.336873735833448,
                "lng": 78.45034978480166,
                "location": "Near Viralimalai, Tamil Nadu"
              },
              {
                "id": "Madurai-v0-f14",
                "name": "Natarajan",
                "milk_liters": 49,
                "lat": 10.264621955498798,
                "lng": 78.00930621265073,
                "location": "Near Pudukkottai, Tamil Nadu"
              },
              {
                "id": "Madurai-v0-f15",
                "name": "Arulkumar",
                "milk_liters": 23,
                "lat": 10.260106831192141,
                "lng": 78.42283330155047,
                "location": "Near Viralimalai, Tamil Nadu"
              },
              {
                "id": "Madurai-v0-f16",
                "name": "Murugappan",
                "milk_liters": 11,
                "lat": 10.294370213248932,
                "lng": 78.44132114262798,
                "location": "Near Viralimalai, Tamil Nadu"
              },
              {
                "id": "Madurai-v0-f17",
                "name": "Yogeshwaran",
                "milk_liters": 15,
                "lat": 10.399555394906889,
                "lng": 78.1747569187116,
                "location": "Near Pudukkottai, Tamil Nadu"
              }
            ],
            "total_milk": 5920,
            "capacity": 5920,
            "distance": 55.55,
            "travel_time": 83.47,
            "utilization": 100
          },
          {
            "id": "droppable-3-1",
            "type": "TN17ST1478",
            "vehicle_number": "TN17ST1478",
            "farmers": [
              {
                "id": "Madurai-v1-f0",
                "name": "Rathi",
                "milk_liters": 25,
                "lat": 10.121884660501772,
                "lng": 78.30055311465428,
                "location": "Near Madurai, Tamil Nadu"
              },
              {
                "id": "Madurai-v1-f1",
                "name": "Karuppan",
                "milk_liters": 16,
                "lat": 10.141832453165117,
                "lng": 78.17761078123905,
                "location": "Near Madurai, Tamil Nadu"
              },
              {
                "id": "Madurai-v1-f2",
                "name": "Arumughan",
                "milk_liters": 27,
                "lat": 10.168948897383551,
                "lng": 78.21451288922826,
                "location": "Near Madurai, Tamil Nadu"
              },
              {
                "id": "Madurai-v1-f3",
                "name": "Velusamy",
                "milk_liters": 20,
                "lat": 10.130780056710094,
                "lng": 78.12283444817277,
                "location": "Near Madurai, Tamil Nadu"
              },
              {
                "id": "Madurai-v1-f4",
                "name": "Ramalingan",
                "milk_liters": 33,
                "lat": 10.250348745957465,
                "lng": 78.0259917862294,
                "location": "Near Pudukkottai, Tamil Nadu"
              },
              {
                "id": "Madurai-v1-f5",
                "name": "Kuppusamy",
                "milk_liters": 26,
                "lat": 10.245371217290433,
                "lng": 78.45451873828665,
                "location": "Near Viralimalai, Tamil Nadu"
              },
              {
                "id": "Madurai-v1-f6",
                "name": "Thanaraj",
                "milk_liters": 44,
                "lat": 10.101870518334902,
                "lng": 78.33102017300685,
                "location": "Near Madurai, Tamil Nadu"
              },
              {
                "id": "Madurai-v1-f7",
                "name": "Thavapalan",
                "milk_liters": 36,
                "lat": 10.221408845111219,
                "lng": 78.32194519261353,
                "location": "Near Viralimalai, Tamil Nadu"
              },
              {
                "id": "Madurai-v1-f8",
                "name": "Ayyanar",
                "milk_liters": 25,
                "lat": 10.190352524981472,
                "lng": 78.45273072612653,
                "location": "Near Madurai, Tamil Nadu"
              }
            ],
            "total_milk": 2160,
            "capacity": 2200,
            "distance": 34.38,
            "travel_time": 51.78,
            "utilization": 98.18181818181819
          }
        ],
        "stats": {
          "vehiclesUsed": 2,
          "totalAssignedMilk": 8080,
          "fullnessPercent": 32.32,
          "lowUtilized": []
        }
      },
      {
        "name": "Singampunari",
        "total_milk": 5640,
        "capacity": 20000,
        "lat": 10.600394103618234,
        "lng": 78.09276729856812,
        "vehicles": [
          {
            "id": "droppable-4-0",
            "type": "CAT_F017",
            "vehicle_number": "CAT_F017",
            "farmers": [
              {
                "id": "Singampunari-v0-f0",
                "name": "Ravichandran",
                "milk_liters": 34,
                "lat": 10.297455830804108,
                "lng": 78.36615004378444,
                "location": "Near Viralimalai, Tamil Nadu"
              },
              {
                "id": "Singampunari-v0-f1",
                "name": "Annamalai",
                "milk_liters": 20,
                "lat": 10.416338560461895,
                "lng": 78.34999877155165,
                "location": "Near Dindigul, Tamil Nadu"
              },
              {
                "id": "Singampunari-v0-f2",
                "name": "Sakthivelan",
                "milk_liters": 44,
                "lat": 10.428608904385271,
                "lng": 78.06043389599098,
                "location": "Near Pudukkottai, Tamil Nadu"
              },
              {
                "id": "Singampunari-v0-f3",
                "name": "Manikandan",
                "milk_liters": 47,
                "lat": 10.005492316437136,
                "lng": 78.20535908282899,
                "location": "Near Madurai, Tamil Nadu"
              },
              {
                "id": "Singampunari-v0-f4",
                "name": "Vaidyanathan",
                "milk_liters": 16,
                "lat": 10.482692922745782,
                "lng": 78.26919499360098,
                "location": "Near Dindigul, Tamil Nadu"
              },
              {
                "id": "Singampunari-v0-f5",
                "name": "Karthik",
                "milk_liters": 34,
                "lat": 10.003504969334601,
                "lng": 78.43850885564277,
                "location": "Near Madurai, Tamil Nadu"
              },
              {
                "id": "Singampunari-v0-f6",
                "name": "Devarajan",
                "milk_liters": 20,
                "lat": 10.066077313283866,
                "lng": 78.48411138654674,
                "location": "Near Madurai, Tamil Nadu"
              },
              {
                "id": "Singampunari-v0-f7",
                "name": "Jegan",
                "milk_liters": 31,
                "lat": 10.127475735646545,
                "lng": 78.43493556110512,
                "location": "Near Madurai, Tamil Nadu"
              }
            ],
            "total_milk": 2800,
            "capacity": 2800,
            "distance": 72.19,
            "travel_time": 72.65,
            "utilization": 100
          },
          {
            "id": "droppable-4-1",
            "type": "TN15TV1256",
            "vehicle_number": "TN15TV1256",
            "farmers": [
              {
                "id": "Singampunari-v1-f0",
                "name": "Raja",
                "milk_liters": 40,
                "lat": 10.193652463729538,
                "lng": 78.21830532138864,
                "location": "Near Madurai, Tamil Nadu"
              },
              {
                "id": "Singampunari-v1-f1",
                "name": "Azhagan",
                "milk_liters": 34,
                "lat": 10.080204100806881,
                "lng": 78.30986087376651,
                "location": "Near Madurai, Tamil Nadu"
              },
              {
                "id": "Singampunari-v1-f2",
                "name": "Kasinathan",
                "milk_liters": 35,
                "lat": 10.213187302503664,
                "lng": 78.03642653677971,
                "location": "Near Pudukkottai, Tamil Nadu"
              },
              {
                "id": "Singampunari-v1-f3",
                "name": "Anbu",
                "milk_liters": 23,
                "lat": 10.461924038297981,
                "lng": 78.26005505263498,
                "location": "Near Dindigul, Tamil Nadu"
              },
              {
                "id": "Singampunari-v1-f4",
                "name": "Muthukumar",
                "milk_liters": 31,
                "lat": 10.43421006557355,
                "lng": 78.22472506600168,
                "location": "Near Dindigul, Tamil Nadu"
              },
              {
                "id": "Singampunari-v1-f5",
                "name": "Jayakumar",
                "milk_liters": 16,
                "lat": 10.025698838145098,
                "lng": 78.23942685056858,
                "location": "Near Madurai, Tamil Nadu"
              },
              {
                "id": "Singampunari-v1-f6",
                "name": "Arvind",
                "milk_liters": 23,
                "lat": 10.469917156474413,
                "lng": 78.00077067875866,
                "location": "Near Pudukkottai, Tamil Nadu"
              }
            ],
            "total_milk": 2000,
            "capacity": 2000,
            "distance": 62.71,
            "travel_time": 63.39,
            "utilization": 100
          },
          {
            "id": "droppable-4-2",
            "type": "CAT_F008",
            "vehicle_number": "CAT_F008",
            "farmers": [
              {
                "id": "Singampunari-v2-f0",
                "name": "Jagannathan",
                "milk_liters": 39,
                "lat": 10.282422707683052,
                "lng": 78.00993393369411,
                "location": "Near Pudukkottai, Tamil Nadu"
              },
              {
                "id": "Singampunari-v2-f1",
                "name": "Rajaraman",
                "milk_liters": 24,
                "lat": 10.21592902125546,
                "lng": 78.00657277246415,
                "location": "Near Pudukkottai, Tamil Nadu"
              },
              {
                "id": "Singampunari-v2-f2",
                "name": "Sundar",
                "milk_liters": 29,
                "lat": 10.215145898543417,
                "lng": 78.03498340506498,
                "location": "Near Pudukkottai, Tamil Nadu"
              },
              {
                "id": "Singampunari-v2-f3",
                "name": "Ramachandran",
                "milk_liters": 15,
                "lat": 10.230969435568587,
                "lng": 78.16299130738341,
                "location": "Near Pudukkottai, Tamil Nadu"
              }
            ],
            "total_milk": 840,
            "capacity": 1320,
            "distance": 33.68,
            "travel_time": 40.77,
            "utilization": 63.63636363636363
          }
        ],
        "stats": {
          "vehiclesUsed": 3,
          "totalAssignedMilk": 5640,
          "fullnessPercent": 28.2,
          "lowUtilized": [
            {
              "vehicle_number": "CAT_F008",
              "pct": 63.64
            }
          ]
        }
      },
      {
        "name": "Ponnamaravathi Bus stand",
        "total_milk": 4840,
        "capacity": 30000,
        "lat": 10.22591286975095,
        "lng": 78.33821284681925,
        "vehicles": [
          {
            "id": "droppable-5-0",
            "type": "CAT_F015",
            "vehicle_number": "CAT_F015",
            "farmers": [
              {
                "id": "Ponnamaravathi Bus stand-v0-f0",
                "name": "Subash",
                "milk_liters": 21,
                "lat": 10.487265947142411,
                "lng": 78.43880505819574,
                "location": "Near Dindigul, Tamil Nadu"
              },
              {
                "id": "Ponnamaravathi Bus stand-v0-f1",
                "name": "Dhanapal",
                "milk_liters": 19,
                "lat": 10.251890252146273,
                "lng": 78.19163672103905,
                "location": "Near Pudukkottai, Tamil Nadu"
              },
              {
                "id": "Ponnamaravathi Bus stand-v0-f2",
                "name": "Suthan",
                "milk_liters": 12,
                "lat": 10.325244902540325,
                "lng": 78.37746735493853,
                "location": "Near Viralimalai, Tamil Nadu"
              },
              {
                "id": "Ponnamaravathi Bus stand-v0-f3",
                "name": "Vasu",
                "milk_liters": 32,
                "lat": 10.069641705509644,
                "lng": 78.038753225714,
                "location": "Near Madurai, Tamil Nadu"
              },
              {
                "id": "Ponnamaravathi Bus stand-v0-f4",
                "name": "Shanmugam",
                "milk_liters": 36,
                "lat": 10.419520514865814,
                "lng": 78.04424830110763,
                "location": "Near Pudukkottai, Tamil Nadu"
              },
              {
                "id": "Ponnamaravathi Bus stand-v0-f5",
                "name": "Murali",
                "milk_liters": 45,
                "lat": 10.076958394141535,
                "lng": 78.16601013290847,
                "location": "Near Madurai, Tamil Nadu"
              }
            ],
            "total_milk": 2200,
            "capacity": 2200,
            "distance": 76.03,
            "travel_time": 87.57,
            "utilization": 100
          },
          {
            "id": "droppable-5-1",
            "type": "CAT_F014",
            "vehicle_number": "CAT_F014",
            "farmers": [
              {
                "id": "Ponnamaravathi Bus stand-v1-f0",
                "name": "Narayanan",
                "milk_liters": 31,
                "lat": 10.463620803447913,
                "lng": 78.0024384877882,
                "location": "Near Pudukkottai, Tamil Nadu"
              },
              {
                "id": "Ponnamaravathi Bus stand-v1-f1",
                "name": "Srinivasan",
                "milk_liters": 44,
                "lat": 10.061856365286484,
                "lng": 78.39880432677089,
                "location": "Near Madurai, Tamil Nadu"
              },
              {
                "id": "Ponnamaravathi Bus stand-v1-f2",
                "name": "Kannan",
                "milk_liters": 38,
                "lat": 10.101003177661303,
                "lng": 78.21108564757371,
                "location": "Near Madurai, Tamil Nadu"
              },
              {
                "id": "Ponnamaravathi Bus stand-v1-f3",
                "name": "Venkatesh",
                "milk_liters": 46,
                "lat": 10.268209178261978,
                "lng": 78.04981006042809,
                "location": "Near Pudukkottai, Tamil Nadu"
              },
              {
                "id": "Ponnamaravathi Bus stand-v1-f4",
                "name": "Saravanan",
                "milk_liters": 25,
                "lat": 10.466559476896913,
                "lng": 78.45164566495069,
                "location": "Near Dindigul, Tamil Nadu"
              },
              {
                "id": "Ponnamaravathi Bus stand-v1-f5",
                "name": "Suresh",
                "milk_liters": 15,
                "lat": 10.344015923272808,
                "lng": 78.29468875085223,
                "location": "Near Dindigul, Tamil Nadu"
              },
              {
                "id": "Ponnamaravathi Bus stand-v1-f6",
                "name": "Subramanian",
                "milk_liters": 46,
                "lat": 10.385085372015093,
                "lng": 78.36784847739813,
                "location": "Near Viralimalai, Tamil Nadu"
              }
            ],
            "total_milk": 1960,
            "capacity": 2000,
            "distance": 74.42,
            "travel_time": 84.38,
            "utilization": 98
          },
          {
            "id": "droppable-5-2",
            "type": "TN12SV1986",
            "vehicle_number": "TN12SV1986",
            "farmers": [
              {
                "id": "Ponnamaravathi Bus stand-v2-f0",
                "name": "Pandiyan",
                "milk_liters": 34,
                "lat": 10.072375025687705,
                "lng": 78.03026054876008,
                "location": "Near Madurai, Tamil Nadu"
              },
              {
                "id": "Ponnamaravathi Bus stand-v2-f1",
                "name": "Kamaraj",
                "milk_liters": 13,
                "lat": 10.080464704690366,
                "lng": 78.23146800763446,
                "location": "Near Madurai, Tamil Nadu"
              },
              {
                "id": "Ponnamaravathi Bus stand-v2-f2",
                "name": "Sakthivel",
                "milk_liters": 48,
                "lat": 10.147981414878792,
                "lng": 78.126320607842,
                "location": "Near Madurai, Tamil Nadu"
              }
            ],
            "total_milk": 680,
            "capacity": 1600,
            "distance": 60.67,
            "travel_time": 70.74,
            "utilization": 42.5
          }
        ],
        "stats": {
          "vehiclesUsed": 3,
          "totalAssignedMilk": 4840,
          "fullnessPercent": 16.13,
          "lowUtilized": [
            {
              "vehicle_number": "TN12SV1986",
              "pct": 42.5
            }
          ]
        }
      }
    ],
    "timestamp": "2025-11-13T17:42:46.974856+00:00"
  }
}