{
  "optimization_results": {
    "clusters": [
      {
        "name": "Thuvarankurichi",
        "total_milk": 5880,
        "capacity": 15000,
        "lat": 10.420311018357733,
        "lng": 78.05947844301579,
        "vehicles": [
          {
            "id": "droppable-0-0",
            "type": "TN56ST1256",
            "vehicle_number": "TN56ST1256",
            "farmers": [
              {
                "id": "Thuvarankurichi-v0-f0",
                "name": "Kalimuthu",
                "milk_liters": 38,
                "lat": 10.345748637248667,
                "lng": 78.47596851084099,
                "location": "Near Viralimalai, Tamil Nadu"
              },
              {
                "id": "Thuvarankurichi-v0-f1",
                "name": "Gopalakrishnan",
                "milk_liters": 36,
                "lat": 10.021790820855765,
                "lng": 78.43733426246551,
                "location": "Near Madurai, Tamil Nadu"
              },
              {
                "id": "Thuvarankurichi-v0-f2",
                "name": "Senthilkumar",
                "milk_liters": 38,
                "lat": 10.465294455915211,
                "lng": 78.07736244410276,
                "location": "Near Pudukkottai, Tamil Nadu"
              },
              {
                "id": "Thuvarankurichi-v0-f3",
                "name": "Ganesan",
                "milk_liters": 25,
                "lat": 10.446080354169235,
                "lng": 78.32663374863787,
                "location": "Near Dindigul, Tamil Nadu"
              },
              {
                "id": "Thuvarankurichi-v0-f4",
                "name": "Ramu",
                "milk_liters": 24,
                "lat": 10.347667840446512,
                "lng": 78.48157841834043,
                "location": "Near Viralimalai, Tamil Nadu"
              },
              {
                "id": "Thuvarankurichi-v0-f5",
                "name": "Muthusamy",
                "milk_liters": 25,
                "lat": 10.262032936643179,
                "lng": 78.38409370915709,
                "location": "Near Viralimalai, Tamil Nadu"
              },
              {
                "id": "Thuvarankurichi-v0-f6",
                "name": "Nadarajan",
                "milk_liters": 45,
                "lat": 10.299187793454978,
                "lng": 78.01143181259775,
                "location": "Near Pudukkottai, Tamil Nadu"
              },
              {
                "id": "Thuvarankurichi-v0-f7",
                "name": "Karuppusamy",
                "milk_liters": 25,
                "lat": 10.21599892033089,
                "lng": 78.09752814448395,
                "location": "Near Pudukkottai, Tamil Nadu"
              }
            ],
            "total_milk": 2800,
            "capacity": 2800,
            "distance": 41,
            "travel_time": 119,
            "utilization": 100
          },
          {
            "id": "droppable-0-1",
            "type": "CAT_F011",
            "vehicle_number": "CAT_F011",
            "farmers": [
              {
                "id": "Thuvarankurichi-v1-f0",
                "name": "Nalliah",
                "milk_liters": 43,
                "lat": 10.308852347949484,
                "lng": 78.29935833661622,
                "location": "Near Dindigul, Tamil Nadu"
              },
              {
                "id": "Thuvarankurichi-v1-f1",
                "name": "Manickam",
                "milk_liters": 27,
                "lat": 10.135450901743281,
                "lng": 78.32009996184416,
                "location": "Near Madurai, Tamil Nadu"
              },
              {
                "id": "Thuvarankurichi-v1-f2",
                "name": "Thirumalai",
                "milk_liters": 40,
                "lat": 10.374932735392651,
                "lng": 78.37589246438844,
                "location": "Near Viralimalai, Tamil Nadu"
              },
              {
                "id": "Thuvarankurichi-v1-f3",
                "name": "Murugan",
                "milk_liters": 37,
                "lat": 10.14964397438124,
                "lng": 78.21111642671261,
                "location": "Near Madurai, Tamil Nadu"
              },
              {
                "id": "Thuvarankurichi-v1-f4",
                "name": "Vellaiyappan",
                "milk_liters": 43,
                "lat": 10.012878524131516,
                "lng": 78.24549101812639,
                "location": "Near Madurai, Tamil Nadu"
              },
              {
                "id": "Thuvarankurichi-v1-f5",
                "name": "Kothandaraman",
                "milk_liters": 15,
                "lat": 10.094286714878967,
                "lng": 78.06392990281306,
                "location": "Near Madurai, Tamil Nadu"
              },
              {
                "id": "Thuvarankurichi-v1-f6",
                "name": "Veeramani",
                "milk_liters": 31,
                "lat": 10.360398813208402,
                "lng": 78.3712506970778,
                "location": "Near Viralimalai, Tamil Nadu"
              },
              {
                "id": "Thuvarankurichi-v1-f7",
                "name": "Anbalagan",
                "milk_liters": 20,
                "lat": 10.497598873695434,
                "lng": 78.1809054714461,
                "location": "Near Pudukkottai, Tamil Nadu"
              },
              {
                "id": "Thuvarankurichi-v1-f8",
                "name": "Karunanidhi",
                "milk_liters": 26,
                "lat": 10.309062690621836,
                "lng": 78.37467029129901,
                "location": "Near Viralimalai, Tamil Nadu"
              },
              {
                "id": "Thuvarankurichi-v1-f9",
                "name": "Karthikeyan",
                "milk_liters": 22,
                "lat": 10.242110710298624,
                "lng": 78.14969911375331,
                "location": "Near Pudukkottai, Tamil Nadu"
              }
            ],
            "total_milk": 2680,
            "capacity": 2680,
            "distance": 24,
            "travel_time": 125,
            "utilization": 100
          },
          {
            "id": "droppable-0-2",
            "type": "TN13ST7896",
            "vehicle_number": "TN13ST7896",
            "farmers": [
              {
                "id": "Thuvarankurichi-v2-f0",
                "name": "Rajadurai",
                "milk_liters": 38,
                "lat": 10.472451891498995,
                "lng": 78.14344377497595,
                "location": "Near Pudukkottai, Tamil Nadu"
              },
              {
                "id": "Thuvarankurichi-v2-f1",
                "name": "Veerapandi",
                "milk_liters": 28,
                "lat": 10.247673244059603,
                "lng": 78.18860493104623,
                "location": "Near Pudukkottai, Tamil Nadu"
              }
            ],
            "total_milk": 400,
            "capacity": 1200,
            "distance": 36.81,
            "travel_time": 39.24,
            "utilization": 33.33333333333333
          }
        ],
        "stats": {
          "vehiclesUsed": 3,
          "totalAssignedMilk": 5880,
          "fullnessPercent": 39.2,
          "lowUtilized": [
            {
              "vehicle_number": "TN13ST7896",
              "pct": 33.33
            }
          ]
        }
      },
      {
        "name": "Viralimalai",
        "total_milk": 2840,
        "capacity": 9000,
        "lat": 10.642933272787463,
        "lng": 78.08866399597672,
        "vehicles": [
          {
            "id": "droppable-1-0",
            "type": "TN12SV1485",
            "vehicle_number": "TN12SV1485",
            "farmers": [
              {
                "id": "Viralimalai-v0-f0",
                "name": "Kumarasamy",
                "milk_liters": 15,
                "lat": 10.392070731489264,
                "lng": 78.063994404189,
                "location": "Near Pudukkottai, Tamil Nadu"
              },
              {
                "id": "Viralimalai-v0-f1",
                "name": "Sivaraj",
                "milk_liters": 46,
                "lat": 10.022357348288978,
                "lng": 78.25548235646116,
                "location": "Near Madurai, Tamil Nadu"
              },
              {
                "id": "Viralimalai-v0-f2",
                "name": "Mariappan",
                "milk_liters": 40,
                "lat": 10.014568235520313,
                "lng": 78.24128076954476,
                "location": "Near Madurai, Tamil Nadu"
              },
              {
                "id": "Viralimalai-v0-f3",
                "name": "Muthuraman",
                "milk_liters": 48,
                "lat": 10.074249243773986,
                "lng": 78.13345614963171,
                "location": "Near Madurai, Tamil Nadu"
              },
              {
                "id": "Viralimalai-v0-f4",
                "name": "Ponnusamy",
                "milk_liters": 31,
                "lat": 10.460097691410475,
                "lng": 78.45213061448439,
                "location": "Near Dindigul, Tamil Nadu"
              },
              {
                "id": "Viralimalai-v0-f5",
                "name": "Ramasamy",
                "milk_liters": 49,
                "lat": 10.039322823259987,
                "lng": 78.45315679549338,
                "location": "Near Madurai, Tamil Nadu"
              }
            ],
            "total_milk": 229,
            "capacity": 2600,
            "distance": 128.54,
            "travel_time": 137.45,
            "utilization": 100
          },
          {
            "id": "droppable-1-1",
            "type": "CAT_F013",
            "vehicle_number": "CAT_F013",
            "farmers": [
              {
                "id": "Viralimalai-v0-f6",
                "name": "Arumugham",
                "milk_liters": 22,
                "lat": 10.475953870998303,
                "lng": 78.16718020192197,
                "location": "Near Pudukkottai, Tamil Nadu"
              },
              {
                "id": "Viralimalai-v0-f7",
                "name": "Perumal",
                "milk_liters": 11,
                "lat": 10.023008349945378,
                "lng": 78.16243279172164,
                "location": "Near Madurai, Tamil Nadu"
              },
              {
                "id": "Viralimalai-v1-f0",
                "name": "Venkatasamy",
                "milk_liters": 20,
                "lat": 10.088902440586388,
                "lng": 78.47692011805964,
                "location": "Near Madurai, Tamil Nadu"
              }
            ],
            "total_milk": 53,
            "capacity": 1200,
            "distance": 30.54,
            "travel_time": 40.55,
            "utilization": 20
          }
        ],
        "stats": {
          "vehiclesUsed": 2,
          "totalAssignedMilk": 282,
          "fullnessPercent": 3.13,
          "lowUtilized": [
            {
              "vehicle_number": "CAT_F013",
              "pct": 20
            }
          ]
        }
      },
      {
        "name": "Melur",
        "total_milk": 9440,
        "capacity": 18000,
        "lat": 10.554938845896777,
        "lng": 78.55143500340958,
        "vehicles": [
          {
            "id": "droppable-2-0",
            "type": "CAT_F019",
            "vehicle_number": "CAT_F019",
            "farmers": [
              {
                "id": "Melur-v0-f0",
                "name": "Muthupandi",
                "milk_liters": 14,
                "lat": 10.339748923520665,
                "lng": 78.1391829033694,
                "location": "Near Pudukkottai, Tamil Nadu"
              },
              {
                "id": "Melur-v0-f1",
                "name": "Rajalakshmi",
                "milk_liters": 39,
                "lat": 10.200149371508095,
                "lng": 78.09706320101542,
                "location": "Near Pudukkottai, Tamil Nadu"
              },
              {
                "id": "Melur-v0-f2",
                "name": "Rajendran",
                "milk_liters": 47,
                "lat": 10.423088689565155,
                "lng": 78.37902305444014,
                "location": "Near Dindigul, Tamil Nadu"
              },
              {
                "id": "Melur-v0-f3",
                "name": "Arulnithi",
                "milk_liters": 30,
                "lat": 10.325899635833935,
                "lng": 78.43659421991593,
                "location": "Near Viralimalai, Tamil Nadu"
              },
              {
                "id": "Melur-v0-f4",
                "name": "Kamalakannan",
                "milk_liters": 28,
                "lat": 10.414066824797297,
                "lng": 78.37979093639875,
                "location": "Near Dindigul, Tamil Nadu"
              },
              {
                "id": "Melur-v0-f5",
                "name": "Marimuthu",
                "milk_liters": 48,
                "lat": 10.202497649987668,
                "lng": 78.41415254918563,
                "location": "Near Viralimalai, Tamil Nadu"
              },
              {
                "id": "Melur-v0-f6",
                "name": "Ayyappan",
                "milk_liters": 47,
                "lat": 10.34759411591082,
                "lng": 78.3228266167826,
                "location": "Near Viralimalai, Tamil Nadu"
              },
              {
                "id": "Melur-v0-f7",
                "name": "Tharshan",
                "milk_liters": 44,
                "lat": 10.086658680082445,
                "lng": 78.41367531250113,
                "location": "Near Madurai, Tamil Nadu"
              },
              {
                "id": "Melur-v0-f8",
                "name": "Sathish",
                "milk_liters": 24,
                "lat": 10.495546933612799,
                "lng": 78.24701585532378,
                "location": "Near Dindigul, Tamil Nadu"
              },
              {
                "id": "Melur-v0-f9",
                "name": "Manikavalan",
                "milk_liters": 48,
                "lat": 10.077188314603523,
                "lng": 78.48240533805632,
                "location": "Near Madurai, Tamil Nadu"
              },
              {
                "id": "Melur-v0-f10",
                "name": "Karuppaiah",
                "milk_liters": 19,
                "lat": 10.167986114716934,
                "lng": 78.3966696506849,
                "location": "Near Madurai, Tamil Nadu"
              },
              {
                "id": "Melur-v0-f11",
                "name": "Aravind",
                "milk_liters": 34,
                "lat": 10.241550597312427,
                "lng": 78.11374089003715,
                "location": "Near Pudukkottai, Tamil Nadu"
              },
              {
                "id": "Melur-v0-f12",
                "name": "Velan",
                "milk_liters": 33,
                "lat": 10.486109337271527,
                "lng": 78.42212603887333,
                "location": "Near Dindigul, Tamil Nadu"
              },
              {
                "id": "Melur-v0-f13",
                "name": "Gokul",
                "milk_liters": 26,
                "lat": 10.091238285937303,
                "lng": 78.15115117921718,
                "location": "Near Madurai, Tamil Nadu"
              },
              {
                "id": "Melur-v0-f14",
                "name": "Arokiyasamy",
                "milk_liters": 30,
                "lat": 10.087963523398768,
                "lng": 78.1253391516975,
                "location": "Near Madurai, Tamil Nadu"
              },
              {
                "id": "Melur-v0-f15",
                "name": "Pugalendhi",
                "milk_liters": 43,
                "lat": 10.41154969142439,
                "lng": 78.08232471237984,
                "location": "Near Pudukkottai, Tamil Nadu"
              },
              {
                "id": "Melur-v0-f16",
                "name": "Raghuraman",
                "milk_liters": 18,
                "lat": 10.319160423752665,
                "lng": 78.40092269920794,
                "location": "Near Viralimalai, Tamil Nadu"
              },
              {
                "id": "Melur-v0-f17",
                "name": "Jeevan",
                "milk_liters": 12,
                "lat": 10.468076770371185,
                "lng": 78.4826054085564,
                "location": "Near Dindigul, Tamil Nadu"
              }
            ],
            "total_milk": 5920,
            "capacity": 5920,
            "distance": 85.05,
            "travel_time": 112.33,
            "utilization": 100
          },
          {
            "id": "droppable-2-1",
            "type": "CAT_F009",
            "vehicle_number": "CAT_F009",
            "farmers": [
              {
                "id": "Melur-v1-f0",
                "name": "Chidambaram",
                "milk_liters": 38,
                "lat": 10.091087685976222,
                "lng": 78.03298516191454,
                "location": "Near Madurai, Tamil Nadu"
              },
              {
                "id": "Melur-v1-f1",
                "name": "Ramasubramanian",
                "milk_liters": 21,
                "lat": 10.403036022211978,
                "lng": 78.28317254190402,
                "location": "Near Dindigul, Tamil Nadu"
              },
              {
                "id": "Melur-v1-f2",
                "name": "Muthiah",
                "milk_liters": 23,
                "lat": 10.439915848774492,
                "lng": 78.32169073894865,
                "location": "Near Dindigul, Tamil Nadu"
              },
              {
                "id": "Melur-v1-f3",
                "name": "Anand",
                "milk_liters": 16,
                "lat": 10.339100799239045,
                "lng": 78.39108575295215,
                "location": "Near Viralimalai, Tamil Nadu"
              },
              {
                "id": "Melur-v1-f4",
                "name": "Balamurugan",
                "milk_liters": 11,
                "lat": 10.338101643570242,
                "lng": 78.17788689559167,
                "location": "Near Pudukkottai, Tamil Nadu"
              },
              {
                "id": "Melur-v1-f5",
                "name": "Thanvanth",
                "milk_liters": 39,
                "lat": 10.093901182624636,
                "lng": 78.46204023713558,
                "location": "Near Madurai, Tamil Nadu"
              },
              {
                "id": "Melur-v1-f6",
                "name": "Sivasamy",
                "milk_liters": 20,
                "lat": 10.422564420207767,
                "lng": 78.27851110306011,
                "location": "Near Dindigul, Tamil Nadu"
              },
              {
                "id": "Melur-v1-f7",
                "name": "Periyasamy",
                "milk_liters": 36,
                "lat": 10.03529160449511,
                "lng": 78.05956437061039,
                "location": "Near Madurai, Tamil Nadu"
              }
            ],
            "total_milk": 2080,
            "capacity": 2080,
            "distance": 57.96,
            "travel_time": 71.72,
            "utilization": 100
          },
          {
            "id": "droppable-2-2",
            "type": "CAT_F007",
            "vehicle_number": "CAT_F007",
            "farmers": [
              {
                "id": "Melur-v2-f0",
                "name": "Chandran",
                "milk_liters": 15,
                "lat": 10.159735614439509,
                "lng": 78.18705735582334,
                "location": "Near Madurai, Tamil Nadu"
              },
              {
                "id": "Melur-v2-f1",
                "name": "Sathiya",
                "milk_liters": 43,
                "lat": 10.183668204633571,
                "lng": 78.12961198242385,
                "location": "Near Madurai, Tamil Nadu"
              },
              {
                "id": "Melur-v2-f2",
                "name": "Ramalingam",
                "milk_liters": 26,
                "lat": 10.005770062869395,
                "lng": 78.17441597866154,
                "location": "Near Madurai, Tamil Nadu"
              },
              {
                "id": "Melur-v2-f3",
                "name": "Periyapalan",
                "milk_liters": 29,
                "lat": 10.40477937457803,
                "lng": 78.4557298607982,
                "location": "Near Dindigul, Tamil Nadu"
              },
              {
                "id": "Melur-v2-f4",
                "name": "Siva",
                "milk_liters": 11,
                "lat": 10.105869867877717,
                "lng": 78.2591523401936,
                "location": "Near Madurai, Tamil Nadu"
              },
              {
                "id": "Melur-v2-f5",
                "name": "Mani",
                "milk_liters": 28,
                "lat": 10.3971898124182,
                "lng": 78.06856369252503,
                "location": "Near Pudukkottai, Tamil Nadu"
              },
              {
                "id": "Melur-v2-f6",
                "name": "Prabhakar",
                "milk_liters": 11,
                "lat": 10.121687378500924,
                "lng": 78.42943028133217,
                "location": "Near Madurai, Tamil Nadu"
              }
            ],
            "total_milk": 1440,
            "capacity": 1520,
            "distance": 77.94,
            "travel_time": 92.99,
            "utilization": 94.73684210526315
          }
        ],
        "stats": {
          "vehiclesUsed": 3,
          "totalAssignedMilk": 9440,
          "fullnessPercent": 52.44,
          "lowUtilized": []
        }
      },
      {
        "name": "Madurai",
        "total_milk": 8080,
        "capacity": 25000,
        "lat": 10.377584914683657,
        "lng": 78.18808718380865,
        "vehicles": [
          {
            "id": "droppable-3-0",
            "type": "CAT_F020",
            "vehicle_number": "CAT_F020",
            "farmers": [
              {
                "id": "Madurai-v0-f0",
                "name": "Karuthapandi",
                "milk_liters": 15,
                "lat": 10.359067596156585,
                "lng": 78.19110657211449,
                "location": "Near Pudukkottai, Tamil Nadu"
              },
              {
                "id": "Madurai-v0-f1",
                "name": "Kaliyaperumal",
                "milk_liters": 25,
                "lat": 10.104017642943534,
                "lng": 78.48952441985253,
                "location": "Near Madurai, Tamil Nadu"
              },
              {
                "id": "Madurai-v0-f2",
                "name": "Venkataraman",
                "milk_liters": 43,
                "lat": 10.376804016270693,
                "lng": 78.10377213763525,
                "location": "Near Pudukkottai, Tamil Nadu"
              },
              {
                "id": "Madurai-v0-f3",
                "name": "Selvakumar",
                "milk_liters": 27,
                "lat": 10.430606141613037,
                "lng": 78.49707919081223,
                "location": "Near Dindigul, Tamil Nadu"
              },
              {
                "id": "Madurai-v0-f4",
                "name": "Jayanthan",
                "milk_liters": 27,
                "lat": 10.216812073420327,
                "lng": 78.31590334408308,
                "location": "Near Viralimalai, Tamil Nadu"
              },
              {
                "id": "Madurai-v0-f5",
                "name": "Ramajayan",
                "milk_liters": 21,
                "lat": 10.377132539575497,
                "lng": 78.4508288700225,
                "location": "Near Viralimalai, Tamil Nadu"
              },
              {
                "id": "Madurai-v0-f6",
                "name": "Ramarajan",
                "milk_liters": 46,
                "lat": 10.357961898942063,
                "lng": 78.09768437174637,
                "location": "Near Pudukkottai, Tamil Nadu"
              },
              {
                "id": "Madurai-v0-f7",
                "name": "Mahalingam",
                "milk_liters": 24,
                "lat": 10.274677296231514,
                "lng": 78.00613036132283,
                "location": "Near Pudukkottai, Tamil Nadu"
              },
              {
                "id": "Madurai-v0-f8",
                "name": "Jagadeesan",
                "milk_liters": 21,
                "lat": 10.380577004267687,
                "lng": 78.48095532877446,
                "location": "Near Viralimalai, Tamil Nadu"
              },
              {
                "id": "Madurai-v0-f9",
                "name": "Palanisamy",
                "milk_liters": 48,
                "lat": 10.135052050911648,
                "lng": 78.309244044577,
                "location": "Near Madurai, Tamil Nadu"
              },
              {
                "id": "Madurai-v0-f10",
                "name": "Selvaraj",
                "milk_liters": 29,
                "lat": 10.275453382880375,
                "lng": 78.10116322585024,
                "location": "Near Pudukkottai, Tamil Nadu"
              },
              {
                "id": "Madurai-v0-f11",
                "name": "Kandasamy",
                "milk_liters": 45,
                "lat": 10.498205048598603,
                "lng": 78.34236140058503,
                "location": "Near Dindigul, Tamil Nadu"
              },
              {
                "id": "Madurai-v0-f12",
                "name": "Krishnamoorthy",
                "milk_liters": 43,
                "lat": 10.435582671428419,
                "lng": 78.26766709756262,
                "location": "Near Dindigul, Tamil Nadu"
              },
              {
                "id": "Madurai-v0-f13",
                "name": "Shankar",
                "milk_liters": 21,
                "lat": 10.25782882304892,
                "lng": 78.30076365405696,
                "location": "Near Viralimalai, Tamil Nadu"
              },
              {
                "id": "Madurai-v0-f14",
                "name": "Natarajan",
                "milk_liters": 31,
                "lat": 10.314435809406342,
                "lng": 78.2113964883237,
                "location": "Near Dindigul, Tamil Nadu"
              },
              {
                "id": "Madurai-v0-f15",
                "name": "Arulkumar",
                "milk_liters": 29,
                "lat": 10.359579343888768,
                "lng": 78.28600660991192,
                "location": "Near Dindigul, Tamil Nadu"
              },
              {
                "id": "Madurai-v0-f16",
                "name": "Murugappan",
                "milk_liters": 12,
                "lat": 10.270106517278858,
                "lng": 78.16659871605701,
                "location": "Near Pudukkottai, Tamil Nadu"
              },
              {
                "id": "Madurai-v0-f17",
                "name": "Yogeshwaran",
                "milk_liters": 37,
                "lat": 10.020192880649356,
                "lng": 78.32379636972168,
                "location": "Near Madurai, Tamil Nadu"
              }
            ],
            "total_milk": 5920,
            "capacity": 5920,
            "distance": 55.55,
            "travel_time": 83.47,
            "utilization": 100
          },
          {
            "id": "droppable-3-1",
            "type": "TN17ST1478",
            "vehicle_number": "TN17ST1478",
            "farmers": [
              {
                "id": "Madurai-v1-f0",
                "name": "Rathi",
                "milk_liters": 29,
                "lat": 10.136828322383096,
                "lng": 78.03531503073583,
                "location": "Near Madurai, Tamil Nadu"
              },
              {
                "id": "Madurai-v1-f1",
                "name": "Karuppan",
                "milk_liters": 10,
                "lat": 10.452030273399599,
                "lng": 78.21019762394116,
                "location": "Near Dindigul, Tamil Nadu"
              },
              {
                "id": "Madurai-v1-f2",
                "name": "Arumughan",
                "milk_liters": 42,
                "lat": 10.024445497438451,
                "lng": 78.49150484525482,
                "location": "Near Madurai, Tamil Nadu"
              },
              {
                "id": "Madurai-v1-f3",
                "name": "Velusamy",
                "milk_liters": 40,
                "lat": 10.171061008409648,
                "lng": 78.06805376098451,
                "location": "Near Madurai, Tamil Nadu"
              },
              {
                "id": "Madurai-v1-f4",
                "name": "Ramalingan",
                "milk_liters": 45,
                "lat": 10.021724278782525,
                "lng": 78.13019159683058,
                "location": "Near Madurai, Tamil Nadu"
              },
              {
                "id": "Madurai-v1-f5",
                "name": "Kuppusamy",
                "milk_liters": 41,
                "lat": 10.317864895100135,
                "lng": 78.28678386320573,
                "location": "Near Dindigul, Tamil Nadu"
              },
              {
                "id": "Madurai-v1-f6",
                "name": "Thanaraj",
                "milk_liters": 48,
                "lat": 10.008305630662779,
                "lng": 78.24429975166319,
                "location": "Near Madurai, Tamil Nadu"
              },
              {
                "id": "Madurai-v1-f7",
                "name": "Thavapalan",
                "milk_liters": 49,
                "lat": 10.115806385549043,
                "lng": 78.29269071443431,
                "location": "Near Madurai, Tamil Nadu"
              },
              {
                "id": "Madurai-v1-f8",
                "name": "Ayyanar",
                "milk_liters": 21,
                "lat": 10.411941571200664,
                "lng": 78.17241295932614,
                "location": "Near Pudukkottai, Tamil Nadu"
              }
            ],
            "total_milk": 2160,
            "capacity": 2200,
            "distance": 34.38,
            "travel_time": 51.78,
            "utilization": 98.18181818181819
          }
        ],
        "stats": {
          "vehiclesUsed": 2,
          "totalAssignedMilk": 8080,
          "fullnessPercent": 32.32,
          "lowUtilized": []
        }
      },
      {
        "name": "Singampunari",
        "total_milk": 5640,
        "capacity": 20000,
        "lat": 10.518133771257089,
        "lng": 78.45733277106785,
        "vehicles": [
          {
            "id": "droppable-4-0",
            "type": "CAT_F017",
            "vehicle_number": "CAT_F017",
            "farmers": [
              {
                "id": "Singampunari-v0-f0",
                "name": "Ravichandran",
                "milk_liters": 16,
                "lat": 10.212874727980731,
                "lng": 78.27092556423585,
                "location": "Near Dindigul, Tamil Nadu"
              },
              {
                "id": "Singampunari-v0-f1",
                "name": "Annamalai",
                "milk_liters": 36,
                "lat": 10.243285588503234,
                "lng": 78.38651177692353,
                "location": "Near Viralimalai, Tamil Nadu"
              },
              {
                "id": "Singampunari-v0-f2",
                "name": "Sakthivelan",
                "milk_liters": 34,
                "lat": 10.003124858479094,
                "lng": 78.46772702187239,
                "location": "Near Madurai, Tamil Nadu"
              },
              {
                "id": "Singampunari-v0-f3",
                "name": "Manikandan",
                "milk_liters": 28,
                "lat": 10.05567564337824,
                "lng": 78.06263826213824,
                "location": "Near Madurai, Tamil Nadu"
              },
              {
                "id": "Singampunari-v0-f4",
                "name": "Vaidyanathan",
                "milk_liters": 39,
                "lat": 10.481823363688362,
                "lng": 78.00870570566084,
                "location": "Near Pudukkottai, Tamil Nadu"
              },
              {
                "id": "Singampunari-v0-f5",
                "name": "Karthik",
                "milk_liters": 24,
                "lat": 10.180531376327725,
                "lng": 78.34474070784776,
                "location": "Near Madurai, Tamil Nadu"
              },
              {
                "id": "Singampunari-v0-f6",
                "name": "Devarajan",
                "milk_liters": 43,
                "lat": 10.329858260183212,
                "lng": 78.4008119242458,
                "location": "Near Viralimalai, Tamil Nadu"
              },
              {
                "id": "Singampunari-v0-f7",
                "name": "Jegan",
                "milk_liters": 45,
                "lat": 10.203786819534718,
                "lng": 78.25163520514693,
                "location": "Near Dindigul, Tamil Nadu"
              }
            ],
            "total_milk": 2800,
            "capacity": 2800,
            "distance": 72.19,
            "travel_time": 72.65,
            "utilization": 100
          },
          {
            "id": "droppable-4-1",
            "type": "TN15TV1256",
            "vehicle_number": "TN15TV1256",
            "farmers": [
              {
                "id": "Singampunari-v1-f0",
                "name": "Raja",
                "milk_liters": 45,
                "lat": 10.19073009526966,
                "lng": 78.07427344642463,
                "location": "Near Madurai, Tamil Nadu"
              },
              {
                "id": "Singampunari-v1-f1",
                "name": "Azhagan",
                "milk_liters": 12,
                "lat": 10.137477964242336,
                "lng": 78.03948954921322,
                "location": "Near Madurai, Tamil Nadu"
              },
              {
                "id": "Singampunari-v1-f2",
                "name": "Kasinathan",
                "milk_liters": 18,
                "lat": 10.33725146419885,
                "lng": 78.40708532489387,
                "location": "Near Viralimalai, Tamil Nadu"
              },
              {
                "id": "Singampunari-v1-f3",
                "name": "Anbu",
                "milk_liters": 11,
                "lat": 10.443889796752906,
                "lng": 78.41742092505015,
                "location": "Near Dindigul, Tamil Nadu"
              },
              {
                "id": "Singampunari-v1-f4",
                "name": "Muthukumar",
                "milk_liters": 27,
                "lat": 10.340449182131955,
                "lng": 78.25896907739978,
                "location": "Near Dindigul, Tamil Nadu"
              },
              {
                "id": "Singampunari-v1-f5",
                "name": "Jayakumar",
                "milk_liters": 26,
                "lat": 10.102945551691327,
                "lng": 78.16823250509083,
                "location": "Near Madurai, Tamil Nadu"
              },
              {
                "id": "Singampunari-v1-f6",
                "name": "Arvind",
                "milk_liters": 41,
                "lat": 10.292039195475125,
                "lng": 78.1371890142695,
                "location": "Near Pudukkottai, Tamil Nadu"
              }
            ],
            "total_milk": 2000,
            "capacity": 2000,
            "distance": 62.71,
            "travel_time": 63.39,
            "utilization": 100
          },
          {
            "id": "droppable-4-2",
            "type": "CAT_F008",
            "vehicle_number": "CAT_F008",
            "farmers": [
              {
                "id": "Singampunari-v2-f0",
                "name": "Jagannathan",
                "milk_liters": 24,
                "lat": 10.307685203164016,
                "lng": 78.31337666401156,
                "location": "Near Viralimalai, Tamil Nadu"
              },
              {
                "id": "Singampunari-v2-f1",
                "name": "Rajaraman",
                "milk_liters": 14,
                "lat": 10.003033994232343,
                "lng": 78.35837512767407,
                "location": "Near Madurai, Tamil Nadu"
              },
              {
                "id": "Singampunari-v2-f2",
                "name": "Sundar",
                "milk_liters": 33,
                "lat": 10.06375041872868,
                "lng": 78.18463363556583,
                "location": "Near Madurai, Tamil Nadu"
              },
              {
                "id": "Singampunari-v2-f3",
                "name": "Ramachandran",
                "milk_liters": 45,
                "lat": 10.04092269389766,
                "lng": 78.2618440406917,
                "location": "Near Madurai, Tamil Nadu"
              }
            ],
            "total_milk": 840,
            "capacity": 1320,
            "distance": 33.68,
            "travel_time": 40.77,
            "utilization": 63.63636363636363
          }
        ],
        "stats": {
          "vehiclesUsed": 3,
          "totalAssignedMilk": 5640,
          "fullnessPercent": 28.2,
          "lowUtilized": [
            {
              "vehicle_number": "CAT_F008",
              "pct": 63.64
            }
          ]
        }
      },
      {
        "name": "Ponnamaravathi Bus stand",
        "total_milk": 4840,
        "capacity": 30000,
        "lat": 10.24711976675761,
        "lng": 78.33784791052217,
        "vehicles": [
          {
            "id": "droppable-5-0",
            "type": "CAT_F015",
            "vehicle_number": "CAT_F015",
            "farmers": [
              {
                "id": "Ponnamaravathi Bus stand-v0-f0",
                "name": "Subash",
                "milk_liters": 27,
                "lat": 10.068630654921444,
                "lng": 78.39794803684052,
                "location": "Near Madurai, Tamil Nadu"
              },
              {
                "id": "Ponnamaravathi Bus stand-v0-f1",
                "name": "Dhanapal",
                "milk_liters": 34,
                "lat": 10.150022981342756,
                "lng": 78.35604205994538,
                "location": "Near Madurai, Tamil Nadu"
              },
              {
                "id": "Ponnamaravathi Bus stand-v0-f2",
                "name": "Suthan",
                "milk_liters": 22,
                "lat": 10.323233161050018,
                "lng": 78.07196260176913,
                "location": "Near Pudukkottai, Tamil Nadu"
              },
              {
                "id": "Ponnamaravathi Bus stand-v0-f3",
                "name": "Vasu",
                "milk_liters": 42,
                "lat": 10.28879415829751,
                "lng": 78.11789869556083,
                "location": "Near Pudukkottai, Tamil Nadu"
              },
              {
                "id": "Ponnamaravathi Bus stand-v0-f4",
                "name": "Shanmugam",
                "milk_liters": 19,
                "lat": 10.489258115314911,
                "lng": 78.0869895651705,
                "location": "Near Pudukkottai, Tamil Nadu"
              },
              {
                "id": "Ponnamaravathi Bus stand-v0-f5",
                "name": "Murali",
                "milk_liters": 46,
                "lat": 10.28418698982007,
                "lng": 78.1099966522025,
                "location": "Near Pudukkottai, Tamil Nadu"
              }
            ],
            "total_milk": 2200,
            "capacity": 2200,
            "distance": 76.03,
            "travel_time": 87.57,
            "utilization": 100
          },
          {
            "id": "droppable-5-1",
            "type": "CAT_F014",
            "vehicle_number": "CAT_F014",
            "farmers": [
              {
                "id": "Ponnamaravathi Bus stand-v1-f0",
                "name": "Narayanan",
                "milk_liters": 12,
                "lat": 10.32916828908825,
                "lng": 78.03038753833647,
                "location": "Near Pudukkottai, Tamil Nadu"
              },
              {
                "id": "Ponnamaravathi Bus stand-v1-f1",
                "name": "Srinivasan",
                "milk_liters": 42,
                "lat": 10.125038824526962,
                "lng": 78.11708691214046,
                "location": "Near Madurai, Tamil Nadu"
              },
              {
                "id": "Ponnamaravathi Bus stand-v1-f2",
                "name": "Kannan",
                "milk_liters": 27,
                "lat": 10.319802364064165,
                "lng": 78.4974010334254,
                "location": "Near Viralimalai, Tamil Nadu"
              },
              {
                "id": "Ponnamaravathi Bus stand-v1-f3",
                "name": "Venkatesh",
                "milk_liters": 38,
                "lat": 10.05125538008889,
                "lng": 78.34040169554261,
                "location": "Near Madurai, Tamil Nadu"
              },
              {
                "id": "Ponnamaravathi Bus stand-v1-f4",
                "name": "Saravanan",
                "milk_liters": 10,
                "lat": 10.17765314918635,
                "lng": 78.02949451669141,
                "location": "Near Madurai, Tamil Nadu"
              },
              {
                "id": "Ponnamaravathi Bus stand-v1-f5",
                "name": "Suresh",
                "milk_liters": 38,
                "lat": 10.43244027024942,
                "lng": 78.1399712922303,
                "location": "Near Pudukkottai, Tamil Nadu"
              },
              {
                "id": "Ponnamaravathi Bus stand-v1-f6",
                "name": "Subramanian",
                "milk_liters": 43,
                "lat": 10.439815051519306,
                "lng": 78.01270457350923,
                "location": "Near Pudukkottai, Tamil Nadu"
              }
            ],
            "total_milk": 1960,
            "capacity": 2000,
            "distance": 74.42,
            "travel_time": 84.38,
            "utilization": 98
          },
          {
            "id": "droppable-5-2",
            "type": "TN12SV1986",
            "vehicle_number": "TN12SV1986",
            "farmers": [
              {
                "id": "Ponnamaravathi Bus stand-v2-f0",
                "name": "Pandiyan",
                "milk_liters": 18,
                "lat": 10.488687643847163,
                "lng": 78.00135983118808,
                "location": "Near Pudukkottai, Tamil Nadu"
              },
              {
                "id": "Ponnamaravathi Bus stand-v2-f1",
                "name": "Kamaraj",
                "milk_liters": 16,
                "lat": 10.195530018769913,
                "lng": 78.30209069096,
                "location": "Near Madurai, Tamil Nadu"
              },
              {
                "id": "Ponnamaravathi Bus stand-v2-f2",
                "name": "Sakthivel",
                "milk_liters": 31,
                "lat": 10.254671109030308,
                "lng": 78.43710192709574,
                "location": "Near Viralimalai, Tamil Nadu"
              }
            ],
            "total_milk": 680,
            "capacity": 1600,
            "distance": 60.67,
            "travel_time": 70.74,
            "utilization": 42.5
          }
        ],
        "stats": {
          "vehiclesUsed": 3,
          "totalAssignedMilk": 4840,
          "fullnessPercent": 16.13,
          "lowUtilized": [
            {
              "vehicle_number": "TN12SV1986",
              "pct": 42.5
            }
          ]
        }
      }
    ],
    "timestamp": "2025-11-13T17:20:37.567647+00:00"
  }
}