{
  "optimization_results": {
    "clusters": [
      {
        "name": "Thuvarankurichi",
        "total_milk": 5880,
        "capacity": 15000,
        "lat": 10.463174633191992,
        "lng": 78.55081373333877,
        "vehicles": [
          {
            "id": "droppable-0-0",
            "type": "TN56ST1256",
            "vehicle_number": "TN56ST1256",
            "farmers": [
              {
                "id": "Thuvarankurichi-v1-f1",
                "name": "Manickam",
                "milk_liters": 44,
                "lat": 10.2260838416239,
                "lng": 78.25283043213554,
                "location": "Near Dindigul, Tamil Nadu"
              },
              {
                "id": "Thuvarankurichi-v1-f0",
                "name": "Nalliah",
                "milk_liters": 18,
                "lat": 10.418118702739168,
                "lng": 78.10531453241269,
                "location": "Near Pudukkottai, Tamil Nadu"
              },
              {
                "id": "Thuvarankurichi-v0-f0",
                "name": "Kalimuthu",
                "milk_liters": 41,
                "lat": 10.0982416463171,
                "lng": 78.17683041442768,
                "location": "Near Madurai, Tamil Nadu"
              },
              {
                "id": "Thuvarankurichi-v0-f1",
                "name": "Gopalakrishnan",
                "milk_liters": 19,
                "lat": 10.030974902187241,
                "lng": 78.28269042582677,
                "location": "Near Madurai, Tamil Nadu"
              },
              {
                "id": "Thuvarankurichi-v0-f2",
                "name": "Senthilkumar",
                "milk_liters": 16,
                "lat": 10.443466264525176,
                "lng": 78.08133703239777,
                "location": "Near Pudukkottai, Tamil Nadu"
              },
              {
                "id": "Thuvarankurichi-v0-f3",
                "name": "Ganesan",
                "milk_liters": 32,
                "lat": 10.237356810606505,
                "lng": 78.36002695070962,
                "location": "Near Viralimalai, Tamil Nadu"
              },
              {
                "id": "Thuvarankurichi-v0-f4",
                "name": "Ramu",
                "milk_liters": 18,
                "lat": 10.311635774988037,
                "lng": 78.2079024556888,
                "location": "Near Dindigul, Tamil Nadu"
              },
              {
                "id": "Thuvarankurichi-v0-f5",
                "name": "Muthusamy",
                "milk_liters": 37,
                "lat": 10.12067952049608,
                "lng": 78.40605394641855,
                "location": "Near Madurai, Tamil Nadu"
              },
              {
                "id": "Thuvarankurichi-v0-f6",
                "name": "Nadarajan",
                "milk_liters": 39,
                "lat": 10.3697899434673,
                "lng": 78.1513754883668,
                "location": "Near Pudukkottai, Tamil Nadu"
              },
              {
                "id": "Thuvarankurichi-v0-f7",
                "name": "Karuppusamy",
                "milk_liters": 48,
                "lat": 10.412696249910288,
                "lng": 78.03784373365755,
                "location": "Near Pudukkottai, Tamil Nadu"
              }
            ],
            "total_milk": 312,
            "capacity": 2800,
            "distance": 37,
            "travel_time": 95,
            "utilization": 100
          },
          {
            "id": "droppable-0-1",
            "type": "CAT_F011",
            "vehicle_number": "CAT_F011",
            "farmers": [
              {
                "id": "Thuvarankurichi-v1-f2",
                "name": "Thirumalai",
                "milk_liters": 33,
                "lat": 10.164396407415884,
                "lng": 78.48949977441542,
                "location": "Near Madurai, Tamil Nadu"
              },
              {
                "id": "Thuvarankurichi-v1-f3",
                "name": "Murugan",
                "milk_liters": 37,
                "lat": 10.47468445392747,
                "lng": 78.39793602671872,
                "location": "Near Dindigul, Tamil Nadu"
              },
              {
                "id": "Thuvarankurichi-v1-f4",
                "name": "Vellaiyappan",
                "milk_liters": 37,
                "lat": 10.107310671337155,
                "lng": 78.24522405719436,
                "location": "Near Madurai, Tamil Nadu"
              },
              {
                "id": "Thuvarankurichi-v1-f5",
                "name": "Kothandaraman",
                "milk_liters": 47,
                "lat": 10.271186606860162,
                "lng": 78.25541667473622,
                "location": "Near Dindigul, Tamil Nadu"
              },
              {
                "id": "Thuvarankurichi-v1-f6",
                "name": "Veeramani",
                "milk_liters": 23,
                "lat": 10.257902024056385,
                "lng": 78.17789311316098,
                "location": "Near Pudukkottai, Tamil Nadu"
              },
              {
                "id": "Thuvarankurichi-v1-f7",
                "name": "Anbalagan",
                "milk_liters": 40,
                "lat": 10.161885876625798,
                "lng": 78.14990849935454,
                "location": "Near Madurai, Tamil Nadu"
              },
              {
                "id": "Thuvarankurichi-v1-f8",
                "name": "Karunanidhi",
                "milk_liters": 22,
                "lat": 10.395607547783332,
                "lng": 78.25442770339161,
                "location": "Near Dindigul, Tamil Nadu"
              },
              {
                "id": "Thuvarankurichi-v1-f9",
                "name": "Karthikeyan",
                "milk_liters": 38,
                "lat": 10.345321863726433,
                "lng": 78.4263534041263,
                "location": "Near Viralimalai, Tamil Nadu"
              }
            ],
            "total_milk": 277,
            "capacity": 2680,
            "distance": 20,
            "travel_time": 159,
            "utilization": 100
          },
          {
            "id": "droppable-0-2",
            "type": "TN13ST7896",
            "vehicle_number": "TN13ST7896",
            "farmers": [
              {
                "id": "Thuvarankurichi-v2-f0",
                "name": "Rajadurai",
                "milk_liters": 19,
                "lat": 10.354193472266543,
                "lng": 78.47806886347722,
                "location": "Near Viralimalai, Tamil Nadu"
              },
              {
                "id": "Thuvarankurichi-v2-f1",
                "name": "Veerapandi",
                "milk_liters": 23,
                "lat": 10.36878761326282,
                "lng": 78.34169716576207,
                "location": "Near Viralimalai, Tamil Nadu"
              }
            ],
            "total_milk": 400,
            "capacity": 1200,
            "distance": 36.81,
            "travel_time": 39.24,
            "utilization": 33.33333333333333
          }
        ],
        "stats": {
          "vehiclesUsed": 3,
          "totalAssignedMilk": 989,
          "fullnessPercent": 6.59,
          "lowUtilized": [
            {
              "vehicle_number": "TN13ST7896",
              "pct": 33.33
            }
          ]
        }
      },
      {
        "name": "Viralimalai",
        "total_milk": 2840,
        "capacity": 9000,
        "lat": 10.520214893817386,
        "lng": 78.30407859238889,
        "vehicles": [
          {
            "id": "droppable-1-0",
            "type": "TN12SV1485",
            "vehicle_number": "TN12SV1485",
            "farmers": [
              {
                "id": "Viralimalai-v0-f0",
                "name": "Kumarasamy",
                "milk_liters": 31,
                "lat": 10.430665652609473,
                "lng": 78.39549398375452,
                "location": "Near Dindigul, Tamil Nadu"
              },
              {
                "id": "Viralimalai-v0-f1",
                "name": "Sivaraj",
                "milk_liters": 14,
                "lat": 10.343673642604513,
                "lng": 78.48183899086717,
                "location": "Near Viralimalai, Tamil Nadu"
              },
              {
                "id": "Viralimalai-v0-f2",
                "name": "Mariappan",
                "milk_liters": 27,
                "lat": 10.350727938109193,
                "lng": 78.46439774440547,
                "location": "Near Viralimalai, Tamil Nadu"
              },
              {
                "id": "Viralimalai-v0-f3",
                "name": "Muthuraman",
                "milk_liters": 33,
                "lat": 10.194755845207233,
                "lng": 78.14131380716682,
                "location": "Near Madurai, Tamil Nadu"
              },
              {
                "id": "Viralimalai-v0-f4",
                "name": "Ponnusamy",
                "milk_liters": 22,
                "lat": 10.439287197209136,
                "lng": 78.26068895978419,
                "location": "Near Dindigul, Tamil Nadu"
              },
              {
                "id": "Viralimalai-v0-f5",
                "name": "Ramasamy",
                "milk_liters": 12,
                "lat": 10.131488117122311,
                "lng": 78.37118099295942,
                "location": "Near Madurai, Tamil Nadu"
              },
              {
                "id": "Viralimalai-v0-f6",
                "name": "Arumugham",
                "milk_liters": 49,
                "lat": 10.149494409206966,
                "lng": 78.07659014483882,
                "location": "Near Madurai, Tamil Nadu"
              },
              {
                "id": "Viralimalai-v0-f7",
                "name": "Perumal",
                "milk_liters": 44,
                "lat": 10.09266096065128,
                "lng": 78.19518278335893,
                "location": "Near Madurai, Tamil Nadu"
              }
            ],
            "total_milk": 2600,
            "capacity": 2600,
            "distance": 128.54,
            "travel_time": 137.45,
            "utilization": 100
          },
          {
            "id": "droppable-1-1",
            "type": "CAT_F013",
            "vehicle_number": "CAT_F013",
            "farmers": [
              {
                "id": "Viralimalai-v1-f0",
                "name": "Venkatasamy",
                "milk_liters": 46,
                "lat": 10.242896482586579,
                "lng": 78.16394137989413,
                "location": "Near Pudukkottai, Tamil Nadu"
              }
            ],
            "total_milk": 240,
            "capacity": 1200,
            "distance": 30.54,
            "travel_time": 40.55,
            "utilization": 20
          }
        ],
        "stats": {
          "vehiclesUsed": 2,
          "totalAssignedMilk": 2840,
          "fullnessPercent": 31.56,
          "lowUtilized": [
            {
              "vehicle_number": "CAT_F013",
              "pct": 20
            }
          ]
        }
      },
      {
        "name": "Melur",
        "total_milk": 9440,
        "capacity": 18000,
        "lat": 10.675767319816002,
        "lng": 78.46812017609865,
        "vehicles": [
          {
            "id": "droppable-2-0",
            "type": "CAT_F019",
            "vehicle_number": "CAT_F019",
            "farmers": [
              {
                "id": "Melur-v0-f0",
                "name": "Muthupandi",
                "milk_liters": 32,
                "lat": 10.238331156070908,
                "lng": 78.09062187882816,
                "location": "Near Pudukkottai, Tamil Nadu"
              },
              {
                "id": "Melur-v0-f1",
                "name": "Rajalakshmi",
                "milk_liters": 28,
                "lat": 10.460395416057533,
                "lng": 78.47553560374854,
                "location": "Near Dindigul, Tamil Nadu"
              },
              {
                "id": "Melur-v0-f2",
                "name": "Rajendran",
                "milk_liters": 45,
                "lat": 10.212952667391361,
                "lng": 78.2251199125762,
                "location": "Near Dindigul, Tamil Nadu"
              },
              {
                "id": "Melur-v0-f3",
                "name": "Arulnithi",
                "milk_liters": 18,
                "lat": 10.13163607290969,
                "lng": 78.31373125500741,
                "location": "Near Madurai, Tamil Nadu"
              },
              {
                "id": "Melur-v0-f4",
                "name": "Kamalakannan",
                "milk_liters": 24,
                "lat": 10.284237744341494,
                "lng": 78.11212817252628,
                "location": "Near Pudukkottai, Tamil Nadu"
              },
              {
                "id": "Melur-v0-f5",
                "name": "Marimuthu",
                "milk_liters": 11,
                "lat": 10.24880046284245,
                "lng": 78.49693065047005,
                "location": "Near Viralimalai, Tamil Nadu"
              },
              {
                "id": "Melur-v0-f6",
                "name": "Ayyappan",
                "milk_liters": 37,
                "lat": 10.020456969683314,
                "lng": 78.19333156275597,
                "location": "Near Madurai, Tamil Nadu"
              },
              {
                "id": "Melur-v0-f7",
                "name": "Tharshan",
                "milk_liters": 32,
                "lat": 10.27691115439146,
                "lng": 78.16206797585343,
                "location": "Near Pudukkottai, Tamil Nadu"
              },
              {
                "id": "Melur-v0-f8",
                "name": "Sathish",
                "milk_liters": 24,
                "lat": 10.196755099481754,
                "lng": 78.17435034810686,
                "location": "Near Madurai, Tamil Nadu"
              },
              {
                "id": "Melur-v0-f9",
                "name": "Manikavalan",
                "milk_liters": 34,
                "lat": 10.062616416126097,
                "lng": 78.4690133654681,
                "location": "Near Madurai, Tamil Nadu"
              },
              {
                "id": "Melur-v0-f10",
                "name": "Karuppaiah",
                "milk_liters": 47,
                "lat": 10.225639348892948,
                "lng": 78.39270252760349,
                "location": "Near Viralimalai, Tamil Nadu"
              },
              {
                "id": "Melur-v0-f11",
                "name": "Aravind",
                "milk_liters": 29,
                "lat": 10.013310268244235,
                "lng": 78.38624746774192,
                "location": "Near Madurai, Tamil Nadu"
              },
              {
                "id": "Melur-v0-f12",
                "name": "Velan",
                "milk_liters": 38,
                "lat": 10.440816244725227,
                "lng": 78.33677340742386,
                "location": "Near Dindigul, Tamil Nadu"
              },
              {
                "id": "Melur-v0-f13",
                "name": "Gokul",
                "milk_liters": 41,
                "lat": 10.280629430903812,
                "lng": 78.41367083314236,
                "location": "Near Viralimalai, Tamil Nadu"
              },
              {
                "id": "Melur-v0-f14",
                "name": "Arokiyasamy",
                "milk_liters": 10,
                "lat": 10.340282900750713,
                "lng": 78.4745179775967,
                "location": "Near Viralimalai, Tamil Nadu"
              },
              {
                "id": "Melur-v0-f15",
                "name": "Pugalendhi",
                "milk_liters": 45,
                "lat": 10.240167232375823,
                "lng": 78.40716991808146,
                "location": "Near Viralimalai, Tamil Nadu"
              },
              {
                "id": "Melur-v0-f16",
                "name": "Raghuraman",
                "milk_liters": 43,
                "lat": 10.267916067709146,
                "lng": 78.45711591992732,
                "location": "Near Viralimalai, Tamil Nadu"
              },
              {
                "id": "Melur-v0-f17",
                "name": "Jeevan",
                "milk_liters": 22,
                "lat": 10.087243800312693,
                "lng": 78.16263286311077,
                "location": "Near Madurai, Tamil Nadu"
              }
            ],
            "total_milk": 5920,
            "capacity": 5920,
            "distance": 85.05,
            "travel_time": 112.33,
            "utilization": 100
          },
          {
            "id": "droppable-2-1",
            "type": "CAT_F009",
            "vehicle_number": "CAT_F009",
            "farmers": [
              {
                "id": "Melur-v1-f0",
                "name": "Chidambaram",
                "milk_liters": 46,
                "lat": 10.325954361415725,
                "lng": 78.11559080010802,
                "location": "Near Pudukkottai, Tamil Nadu"
              },
              {
                "id": "Melur-v1-f1",
                "name": "Ramasubramanian",
                "milk_liters": 29,
                "lat": 10.267967483234184,
                "lng": 78.2899771313467,
                "location": "Near Dindigul, Tamil Nadu"
              },
              {
                "id": "Melur-v1-f2",
                "name": "Muthiah",
                "milk_liters": 28,
                "lat": 10.155751981193637,
                "lng": 78.3593637649997,
                "location": "Near Madurai, Tamil Nadu"
              },
              {
                "id": "Melur-v1-f3",
                "name": "Anand",
                "milk_liters": 11,
                "lat": 10.273689109463332,
                "lng": 78.16440842620192,
                "location": "Near Pudukkottai, Tamil Nadu"
              },
              {
                "id": "Melur-v1-f4",
                "name": "Balamurugan",
                "milk_liters": 28,
                "lat": 10.413605544461864,
                "lng": 78.0894031503734,
                "location": "Near Pudukkottai, Tamil Nadu"
              },
              {
                "id": "Melur-v1-f5",
                "name": "Thanvanth",
                "milk_liters": 14,
                "lat": 10.012941918718333,
                "lng": 78.14354957479915,
                "location": "Near Madurai, Tamil Nadu"
              },
              {
                "id": "Melur-v1-f6",
                "name": "Sivasamy",
                "milk_liters": 42,
                "lat": 10.485517482609998,
                "lng": 78.05666601496196,
                "location": "Near Pudukkottai, Tamil Nadu"
              },
              {
                "id": "Melur-v1-f7",
                "name": "Periyasamy",
                "milk_liters": 27,
                "lat": 10.203015426853783,
                "lng": 78.36745840585652,
                "location": "Near Viralimalai, Tamil Nadu"
              }
            ],
            "total_milk": 2080,
            "capacity": 2080,
            "distance": 57.96,
            "travel_time": 71.72,
            "utilization": 100
          },
          {
            "id": "droppable-2-2",
            "type": "CAT_F007",
            "vehicle_number": "CAT_F007",
            "farmers": [
              {
                "id": "Melur-v2-f0",
                "name": "Chandran",
                "milk_liters": 35,
                "lat": 10.105414264867706,
                "lng": 78.15507728406196,
                "location": "Near Madurai, Tamil Nadu"
              },
              {
                "id": "Melur-v2-f1",
                "name": "Sathiya",
                "milk_liters": 36,
                "lat": 10.189863833325196,
                "lng": 78.43988103525535,
                "location": "Near Madurai, Tamil Nadu"
              },
              {
                "id": "Melur-v2-f2",
                "name": "Ramalingam",
                "milk_liters": 12,
                "lat": 10.295201948438798,
                "lng": 78.40527128894341,
                "location": "Near Viralimalai, Tamil Nadu"
              },
              {
                "id": "Melur-v2-f3",
                "name": "Periyapalan",
                "milk_liters": 35,
                "lat": 10.43132162750381,
                "lng": 78.03008378698036,
                "location": "Near Pudukkottai, Tamil Nadu"
              },
              {
                "id": "Melur-v2-f4",
                "name": "Siva",
                "milk_liters": 46,
                "lat": 10.157676815797183,
                "lng": 78.49939048662112,
                "location": "Near Madurai, Tamil Nadu"
              },
              {
                "id": "Melur-v2-f5",
                "name": "Mani",
                "milk_liters": 36,
                "lat": 10.123286435529263,
                "lng": 78.39001095684627,
                "location": "Near Madurai, Tamil Nadu"
              },
              {
                "id": "Melur-v2-f6",
                "name": "Prabhakar",
                "milk_liters": 24,
                "lat": 10.011859143811321,
                "lng": 78.11043993149401,
                "location": "Near Madurai, Tamil Nadu"
              }
            ],
            "total_milk": 1440,
            "capacity": 1520,
            "distance": 77.94,
            "travel_time": 92.99,
            "utilization": 94.73684210526315
          }
        ],
        "stats": {
          "vehiclesUsed": 3,
          "totalAssignedMilk": 9440,
          "fullnessPercent": 52.44,
          "lowUtilized": []
        }
      },
      {
        "name": "Madurai",
        "total_milk": 8080,
        "capacity": 25000,
        "lat": 10.27906021620627,
        "lng": 78.4141906176532,
        "vehicles": [
          {
            "id": "droppable-3-0",
            "type": "CAT_F020",
            "vehicle_number": "CAT_F020",
            "farmers": [
              {
                "id": "Madurai-v0-f0",
                "name": "Karuthapandi",
                "milk_liters": 12,
                "lat": 10.206928989821394,
                "lng": 78.47453620209087,
                "location": "Near Viralimalai, Tamil Nadu"
              },
              {
                "id": "Madurai-v0-f1",
                "name": "Kaliyaperumal",
                "milk_liters": 26,
                "lat": 10.48348576077954,
                "lng": 78.43402994573852,
                "location": "Near Dindigul, Tamil Nadu"
              },
              {
                "id": "Madurai-v0-f2",
                "name": "Venkataraman",
                "milk_liters": 10,
                "lat": 10.11552486192216,
                "lng": 78.12299951516998,
                "location": "Near Madurai, Tamil Nadu"
              },
              {
                "id": "Madurai-v0-f3",
                "name": "Selvakumar",
                "milk_liters": 25,
                "lat": 10.388305127198484,
                "lng": 78.43281192269929,
                "location": "Near Viralimalai, Tamil Nadu"
              },
              {
                "id": "Madurai-v0-f4",
                "name": "Jayanthan",
                "milk_liters": 21,
                "lat": 10.155250426878707,
                "lng": 78.39095073369496,
                "location": "Near Madurai, Tamil Nadu"
              },
              {
                "id": "Madurai-v0-f5",
                "name": "Ramajayan",
                "milk_liters": 22,
                "lat": 10.189903430862818,
                "lng": 78.34436640715111,
                "location": "Near Madurai, Tamil Nadu"
              },
              {
                "id": "Madurai-v0-f6",
                "name": "Ramarajan",
                "milk_liters": 44,
                "lat": 10.09533976354999,
                "lng": 78.07318886261524,
                "location": "Near Madurai, Tamil Nadu"
              },
              {
                "id": "Madurai-v0-f7",
                "name": "Mahalingam",
                "milk_liters": 31,
                "lat": 10.009089230610849,
                "lng": 78.26922507970349,
                "location": "Near Madurai, Tamil Nadu"
              },
              {
                "id": "Madurai-v0-f8",
                "name": "Jagadeesan",
                "milk_liters": 24,
                "lat": 10.152532298010446,
                "lng": 78.39520091098676,
                "location": "Near Madurai, Tamil Nadu"
              },
              {
                "id": "Madurai-v0-f9",
                "name": "Palanisamy",
                "milk_liters": 13,
                "lat": 10.028674400919453,
                "lng": 78.33882623748238,
                "location": "Near Madurai, Tamil Nadu"
              },
              {
                "id": "Madurai-v0-f10",
                "name": "Selvaraj",
                "milk_liters": 41,
                "lat": 10.076400494615665,
                "lng": 78.34459141008978,
                "location": "Near Madurai, Tamil Nadu"
              },
              {
                "id": "Madurai-v0-f11",
                "name": "Kandasamy",
                "milk_liters": 21,
                "lat": 10.327818564188973,
                "lng": 78.17629022665864,
                "location": "Near Pudukkottai, Tamil Nadu"
              },
              {
                "id": "Madurai-v0-f12",
                "name": "Krishnamoorthy",
                "milk_liters": 14,
                "lat": 10.092009377652285,
                "lng": 78.46746561091659,
                "location": "Near Madurai, Tamil Nadu"
              },
              {
                "id": "Madurai-v0-f13",
                "name": "Shankar",
                "milk_liters": 40,
                "lat": 10.482254268464006,
                "lng": 78.38307989670687,
                "location": "Near Dindigul, Tamil Nadu"
              },
              {
                "id": "Madurai-v0-f14",
                "name": "Natarajan",
                "milk_liters": 48,
                "lat": 10.38322691703663,
                "lng": 78.0170698796873,
                "location": "Near Pudukkottai, Tamil Nadu"
              },
              {
                "id": "Madurai-v0-f15",
                "name": "Arulkumar",
                "milk_liters": 26,
                "lat": 10.077244094710716,
                "lng": 78.1032288002174,
                "location": "Near Madurai, Tamil Nadu"
              },
              {
                "id": "Madurai-v0-f16",
                "name": "Murugappan",
                "milk_liters": 22,
                "lat": 10.172797621416441,
                "lng": 78.45304959078489,
                "location": "Near Madurai, Tamil Nadu"
              },
              {
                "id": "Madurai-v0-f17",
                "name": "Yogeshwaran",
                "milk_liters": 17,
                "lat": 10.07571694130114,
                "lng": 78.11844989030864,
                "location": "Near Madurai, Tamil Nadu"
              }
            ],
            "total_milk": 5920,
            "capacity": 5920,
            "distance": 55.55,
            "travel_time": 83.47,
            "utilization": 100
          },
          {
            "id": "droppable-3-1",
            "type": "TN17ST1478",
            "vehicle_number": "TN17ST1478",
            "farmers": [
              {
                "id": "Madurai-v1-f0",
                "name": "Rathi",
                "milk_liters": 13,
                "lat": 10.001078192630963,
                "lng": 78.23674364935655,
                "location": "Near Madurai, Tamil Nadu"
              },
              {
                "id": "Madurai-v1-f1",
                "name": "Karuppan",
                "milk_liters": 46,
                "lat": 10.167579843307855,
                "lng": 78.02308096192334,
                "location": "Near Madurai, Tamil Nadu"
              },
              {
                "id": "Madurai-v1-f2",
                "name": "Arumughan",
                "milk_liters": 19,
                "lat": 10.43127985222859,
                "lng": 78.37768113384719,
                "location": "Near Dindigul, Tamil Nadu"
              },
              {
                "id": "Madurai-v1-f3",
                "name": "Velusamy",
                "milk_liters": 23,
                "lat": 10.275092628761538,
                "lng": 78.16312854765795,
                "location": "Near Pudukkottai, Tamil Nadu"
              },
              {
                "id": "Madurai-v1-f4",
                "name": "Ramalingan",
                "milk_liters": 28,
                "lat": 10.036964183553806,
                "lng": 78.11117717532504,
                "location": "Near Madurai, Tamil Nadu"
              },
              {
                "id": "Madurai-v1-f5",
                "name": "Kuppusamy",
                "milk_liters": 20,
                "lat": 10.43064967217937,
                "lng": 78.35334784492206,
                "location": "Near Dindigul, Tamil Nadu"
              },
              {
                "id": "Madurai-v1-f6",
                "name": "Thanaraj",
                "milk_liters": 35,
                "lat": 10.075656939579893,
                "lng": 78.08955402859127,
                "location": "Near Madurai, Tamil Nadu"
              },
              {
                "id": "Madurai-v1-f7",
                "name": "Thavapalan",
                "milk_liters": 11,
                "lat": 10.436470646417977,
                "lng": 78.21603560896006,
                "location": "Near Dindigul, Tamil Nadu"
              },
              {
                "id": "Madurai-v1-f8",
                "name": "Ayyanar",
                "milk_liters": 27,
                "lat": 10.489733732879372,
                "lng": 78.23792377329148,
                "location": "Near Dindigul, Tamil Nadu"
              }
            ],
            "total_milk": 2160,
            "capacity": 2200,
            "distance": 34.38,
            "travel_time": 51.78,
            "utilization": 98.18181818181819
          }
        ],
        "stats": {
          "vehiclesUsed": 2,
          "totalAssignedMilk": 8080,
          "fullnessPercent": 32.32,
          "lowUtilized": []
        }
      },
      {
        "name": "Singampunari",
        "total_milk": 5640,
        "capacity": 20000,
        "lat": 10.195888609759693,
        "lng": 78.02175645603546,
        "vehicles": [
          {
            "id": "droppable-4-0",
            "type": "CAT_F017",
            "vehicle_number": "CAT_F017",
            "farmers": [
              {
                "id": "Singampunari-v0-f0",
                "name": "Ravichandran",
                "milk_liters": 31,
                "lat": 10.425874897936152,
                "lng": 78.45466366468233,
                "location": "Near Dindigul, Tamil Nadu"
              },
              {
                "id": "Singampunari-v0-f1",
                "name": "Annamalai",
                "milk_liters": 29,
                "lat": 10.347410906400944,
                "lng": 78.28847328812053,
                "location": "Near Dindigul, Tamil Nadu"
              },
              {
                "id": "Singampunari-v0-f2",
                "name": "Sakthivelan",
                "milk_liters": 14,
                "lat": 10.416945590218518,
                "lng": 78.40803101505358,
                "location": "Near Dindigul, Tamil Nadu"
              },
              {
                "id": "Singampunari-v0-f3",
                "name": "Manikandan",
                "milk_liters": 28,
                "lat": 10.326966847337955,
                "lng": 78.00457583334344,
                "location": "Near Pudukkottai, Tamil Nadu"
              },
              {
                "id": "Singampunari-v0-f4",
                "name": "Vaidyanathan",
                "milk_liters": 15,
                "lat": 10.17146904333132,
                "lng": 78.42298382326119,
                "location": "Near Madurai, Tamil Nadu"
              },
              {
                "id": "Singampunari-v0-f5",
                "name": "Karthik",
                "milk_liters": 37,
                "lat": 10.165722528915905,
                "lng": 78.23175114576452,
                "location": "Near Madurai, Tamil Nadu"
              },
              {
                "id": "Singampunari-v0-f6",
                "name": "Devarajan",
                "milk_liters": 35,
                "lat": 10.427051014353594,
                "lng": 78.0411033928363,
                "location": "Near Pudukkottai, Tamil Nadu"
              },
              {
                "id": "Singampunari-v0-f7",
                "name": "Jegan",
                "milk_liters": 32,
                "lat": 10.261169207344311,
                "lng": 78.01316297984394,
                "location": "Near Pudukkottai, Tamil Nadu"
              }
            ],
            "total_milk": 2800,
            "capacity": 2800,
            "distance": 72.19,
            "travel_time": 72.65,
            "utilization": 100
          },
          {
            "id": "droppable-4-1",
            "type": "TN15TV1256",
            "vehicle_number": "TN15TV1256",
            "farmers": [
              {
                "id": "Singampunari-v1-f0",
                "name": "Raja",
                "milk_liters": 42,
                "lat": 10.374821732584524,
                "lng": 78.24155165775157,
                "location": "Near Dindigul, Tamil Nadu"
              },
              {
                "id": "Singampunari-v1-f1",
                "name": "Azhagan",
                "milk_liters": 13,
                "lat": 10.475556096950067,
                "lng": 78.08729994595174,
                "location": "Near Pudukkottai, Tamil Nadu"
              },
              {
                "id": "Singampunari-v1-f2",
                "name": "Kasinathan",
                "milk_liters": 29,
                "lat": 10.295211054971325,
                "lng": 78.33101422509618,
                "location": "Near Viralimalai, Tamil Nadu"
              },
              {
                "id": "Singampunari-v1-f3",
                "name": "Anbu",
                "milk_liters": 33,
                "lat": 10.35820861827084,
                "lng": 78.46472055503307,
                "location": "Near Viralimalai, Tamil Nadu"
              },
              {
                "id": "Singampunari-v1-f4",
                "name": "Muthukumar",
                "milk_liters": 36,
                "lat": 10.259086846925753,
                "lng": 78.41322372856968,
                "location": "Near Viralimalai, Tamil Nadu"
              },
              {
                "id": "Singampunari-v1-f5",
                "name": "Jayakumar",
                "milk_liters": 43,
                "lat": 10.31085860236235,
                "lng": 78.22663529526493,
                "location": "Near Dindigul, Tamil Nadu"
              },
              {
                "id": "Singampunari-v1-f6",
                "name": "Arvind",
                "milk_liters": 20,
                "lat": 10.352175240307869,
                "lng": 78.43255565942245,
                "location": "Near Viralimalai, Tamil Nadu"
              }
            ],
            "total_milk": 2000,
            "capacity": 2000,
            "distance": 62.71,
            "travel_time": 63.39,
            "utilization": 100
          },
          {
            "id": "droppable-4-2",
            "type": "CAT_F008",
            "vehicle_number": "CAT_F008",
            "farmers": [
              {
                "id": "Singampunari-v2-f0",
                "name": "Jagannathan",
                "milk_liters": 22,
                "lat": 10.427645818203052,
                "lng": 78.01886460736158,
                "location": "Near Pudukkottai, Tamil Nadu"
              },
              {
                "id": "Singampunari-v2-f1",
                "name": "Rajaraman",
                "milk_liters": 46,
                "lat": 10.46965841748408,
                "lng": 78.13305961967319,
                "location": "Near Pudukkottai, Tamil Nadu"
              },
              {
                "id": "Singampunari-v2-f2",
                "name": "Sundar",
                "milk_liters": 29,
                "lat": 10.085657688085284,
                "lng": 78.47205109834144,
                "location": "Near Madurai, Tamil Nadu"
              },
              {
                "id": "Singampunari-v2-f3",
                "name": "Ramachandran",
                "milk_liters": 27,
                "lat": 10.157436243673331,
                "lng": 78.33295682212484,
                "location": "Near Madurai, Tamil Nadu"
              }
            ],
            "total_milk": 840,
            "capacity": 1320,
            "distance": 33.68,
            "travel_time": 40.77,
            "utilization": 63.63636363636363
          }
        ],
        "stats": {
          "vehiclesUsed": 3,
          "totalAssignedMilk": 5640,
          "fullnessPercent": 28.2,
          "lowUtilized": [
            {
              "vehicle_number": "CAT_F008",
              "pct": 63.64
            }
          ]
        }
      },
      {
        "name": "Ponnamaravathi Bus stand",
        "total_milk": 4840,
        "capacity": 30000,
        "lat": 10.333579528825156,
        "lng": 78.0602771920878,
        "vehicles": [
          {
            "id": "droppable-5-0",
            "type": "CAT_F015",
            "vehicle_number": "CAT_F015",
            "farmers": [
              {
                "id": "Ponnamaravathi Bus stand-v0-f0",
                "name": "Subash",
                "milk_liters": 13,
                "lat": 10.120645470077632,
                "lng": 78.10460847639703,
                "location": "Near Madurai, Tamil Nadu"
              },
              {
                "id": "Ponnamaravathi Bus stand-v0-f1",
                "name": "Dhanapal",
                "milk_liters": 11,
                "lat": 10.340727839052118,
                "lng": 78.09818503501717,
                "location": "Near Pudukkottai, Tamil Nadu"
              },
              {
                "id": "Ponnamaravathi Bus stand-v0-f2",
                "name": "Suthan",
                "milk_liters": 45,
                "lat": 10.235277848011911,
                "lng": 78.21789557381486,
                "location": "Near Dindigul, Tamil Nadu"
              },
              {
                "id": "Ponnamaravathi Bus stand-v0-f3",
                "name": "Vasu",
                "milk_liters": 32,
                "lat": 10.233213840652677,
                "lng": 78.19392525923632,
                "location": "Near Pudukkottai, Tamil Nadu"
              },
              {
                "id": "Ponnamaravathi Bus stand-v0-f4",
                "name": "Shanmugam",
                "milk_liters": 16,
                "lat": 10.099148616397544,
                "lng": 78.36378116016978,
                "location": "Near Madurai, Tamil Nadu"
              },
              {
                "id": "Ponnamaravathi Bus stand-v0-f5",
                "name": "Murali",
                "milk_liters": 31,
                "lat": 10.364286313144621,
                "lng": 78.30513280983536,
                "location": "Near Viralimalai, Tamil Nadu"
              }
            ],
            "total_milk": 2200,
            "capacity": 2200,
            "distance": 76.03,
            "travel_time": 87.57,
            "utilization": 100
          },
          {
            "id": "droppable-5-1",
            "type": "CAT_F014",
            "vehicle_number": "CAT_F014",
            "farmers": [
              {
                "id": "Ponnamaravathi Bus stand-v1-f0",
                "name": "Narayanan",
                "milk_liters": 28,
                "lat": 10.17721797862775,
                "lng": 78.31595101662084,
                "location": "Near Madurai, Tamil Nadu"
              },
              {
                "id": "Ponnamaravathi Bus stand-v1-f1",
                "name": "Srinivasan",
                "milk_liters": 31,
                "lat": 10.113591248258889,
                "lng": 78.11747035139999,
                "location": "Near Madurai, Tamil Nadu"
              },
              {
                "id": "Ponnamaravathi Bus stand-v1-f2",
                "name": "Kannan",
                "milk_liters": 40,
                "lat": 10.13514965745486,
                "lng": 78.39219773054221,
                "location": "Near Madurai, Tamil Nadu"
              },
              {
                "id": "Ponnamaravathi Bus stand-v1-f3",
                "name": "Venkatesh",
                "milk_liters": 19,
                "lat": 10.485024389610135,
                "lng": 78.18524327250385,
                "location": "Near Pudukkottai, Tamil Nadu"
              },
              {
                "id": "Ponnamaravathi Bus stand-v1-f4",
                "name": "Saravanan",
                "milk_liters": 33,
                "lat": 10.37238138135846,
                "lng": 78.47797336917053,
                "location": "Near Viralimalai, Tamil Nadu"
              },
              {
                "id": "Ponnamaravathi Bus stand-v1-f5",
                "name": "Suresh",
                "milk_liters": 15,
                "lat": 10.185031726660807,
                "lng": 78.32062670173269,
                "location": "Near Madurai, Tamil Nadu"
              },
              {
                "id": "Ponnamaravathi Bus stand-v1-f6",
                "name": "Subramanian",
                "milk_liters": 44,
                "lat": 10.248948333851448,
                "lng": 78.10546222499127,
                "location": "Near Pudukkottai, Tamil Nadu"
              }
            ],
            "total_milk": 1960,
            "capacity": 2000,
            "distance": 74.42,
            "travel_time": 84.38,
            "utilization": 98
          },
          {
            "id": "droppable-5-2",
            "type": "TN12SV1986",
            "vehicle_number": "TN12SV1986",
            "farmers": [
              {
                "id": "Ponnamaravathi Bus stand-v2-f0",
                "name": "Pandiyan",
                "milk_liters": 35,
                "lat": 10.04943805746552,
                "lng": 78.3878191720168,
                "location": "Near Madurai, Tamil Nadu"
              },
              {
                "id": "Ponnamaravathi Bus stand-v2-f1",
                "name": "Kamaraj",
                "milk_liters": 48,
                "lat": 10.11353584318541,
                "lng": 78.18043337938998,
                "location": "Near Madurai, Tamil Nadu"
              },
              {
                "id": "Ponnamaravathi Bus stand-v2-f2",
                "name": "Sakthivel",
                "milk_liters": 20,
                "lat": 10.330295921108748,
                "lng": 78.31566417190066,
                "location": "Near Viralimalai, Tamil Nadu"
              }
            ],
            "total_milk": 680,
            "capacity": 1600,
            "distance": 60.67,
            "travel_time": 70.74,
            "utilization": 42.5
          }
        ],
        "stats": {
          "vehiclesUsed": 3,
          "totalAssignedMilk": 4840,
          "fullnessPercent": 16.13,
          "lowUtilized": [
            {
              "vehicle_number": "TN12SV1986",
              "pct": 42.5
            }
          ]
        }
      }
    ],
    "timestamp": "2025-11-13T17:05:02.052975+00:00"
  }
}