{
  "optimization_results": {
    "clusters": [
      {
        "name": "Thuvarankurichi",
        "total_milk": 5880,
        "capacity": 15000,
        "lat": 10.616363102277445,
        "lng": 78.29254123748301,
        "vehicles": [
          {
            "id": "droppable-0-0",
            "type": "TN56ST1256",
            "vehicle_number": "TN56ST1256",
            "farmers": [
              {
                "id": "Thuvarankurichi-v0-f0",
                "name": "Kalimuthu",
                "milk_liters": 31,
                "lat": 10.44734327163013,
                "lng": 78.36604489360502,
                "location": "Near Dindigul, Tamil Nadu"
              },
              {
                "id": "Thuvarankurichi-v0-f1",
                "name": "Gopalakrishnan",
                "milk_liters": 24,
                "lat": 10.18085172340701,
                "lng": 78.07468276846684,
                "location": "Near Madurai, Tamil Nadu"
              },
              {
                "id": "Thuvarankurichi-v0-f2",
                "name": "Senthilkumar",
                "milk_liters": 48,
                "lat": 10.206985596653345,
                "lng": 78.16902145019735,
                "location": "Near Pudukkottai, Tamil Nadu"
              },
              {
                "id": "Thuvarankurichi-v0-f3",
                "name": "Ganesan",
                "milk_liters": 40,
                "lat": 10.47291894675574,
                "lng": 78.34148911611511,
                "location": "Near Dindigul, Tamil Nadu"
              },
              {
                "id": "Thuvarankurichi-v0-f4",
                "name": "Ramu",
                "milk_liters": 19,
                "lat": 10.336575554522854,
                "lng": 78.14412183322108,
                "location": "Near Pudukkottai, Tamil Nadu"
              },
              {
                "id": "Thuvarankurichi-v0-f5",
                "name": "Muthusamy",
                "milk_liters": 27,
                "lat": 10.068708022948993,
                "lng": 78.00016904583538,
                "location": "Near Madurai, Tamil Nadu"
              },
              {
                "id": "Thuvarankurichi-v0-f6",
                "name": "Nadarajan",
                "milk_liters": 13,
                "lat": 10.298789438800402,
                "lng": 78.04410468846181,
                "location": "Near Pudukkottai, Tamil Nadu"
              },
              {
                "id": "Thuvarankurichi-v0-f7",
                "name": "Karuppusamy",
                "milk_liters": 28,
                "lat": 10.164107283232088,
                "lng": 78.19723904992514,
                "location": "Near Madurai, Tamil Nadu"
              }
            ],
            "total_milk": 2800,
            "capacity": 2800,
            "distance": 38,
            "travel_time": 178,
            "utilization": 100
          },
          {
            "id": "droppable-0-1",
            "type": "CAT_F011",
            "vehicle_number": "CAT_F011",
            "farmers": [
              {
                "id": "Thuvarankurichi-v1-f0",
                "name": "Nalliah",
                "milk_liters": 30,
                "lat": 10.16080146692136,
                "lng": 78.44979395181868,
                "location": "Near Madurai, Tamil Nadu"
              },
              {
                "id": "Thuvarankurichi-v1-f1",
                "name": "Manickam",
                "milk_liters": 42,
                "lat": 10.449112088051187,
                "lng": 78.39274607161353,
                "location": "Near Dindigul, Tamil Nadu"
              },
              {
                "id": "Thuvarankurichi-v1-f2",
                "name": "Thirumalai",
                "milk_liters": 18,
                "lat": 10.396607268080212,
                "lng": 78.42113595160075,
                "location": "Near Viralimalai, Tamil Nadu"
              },
              {
                "id": "Thuvarankurichi-v1-f3",
                "name": "Murugan",
                "milk_liters": 27,
                "lat": 10.447738051741112,
                "lng": 78.1874091348256,
                "location": "Near Pudukkottai, Tamil Nadu"
              },
              {
                "id": "Thuvarankurichi-v1-f4",
                "name": "Vellaiyappan",
                "milk_liters": 44,
                "lat": 10.40816461346747,
                "lng": 78.0849577539356,
                "location": "Near Pudukkottai, Tamil Nadu"
              },
              {
                "id": "Thuvarankurichi-v1-f5",
                "name": "Kothandaraman",
                "milk_liters": 33,
                "lat": 10.482924582171952,
                "lng": 78.07347345544011,
                "location": "Near Pudukkottai, Tamil Nadu"
              },
              {
                "id": "Thuvarankurichi-v1-f6",
                "name": "Veeramani",
                "milk_liters": 26,
                "lat": 10.050117831614113,
                "lng": 78.465331160488,
                "location": "Near Madurai, Tamil Nadu"
              },
              {
                "id": "Thuvarankurichi-v1-f7",
                "name": "Anbalagan",
                "milk_liters": 44,
                "lat": 10.411495228362561,
                "lng": 78.28028400008806,
                "location": "Near Dindigul, Tamil Nadu"
              },
              {
                "id": "Thuvarankurichi-v1-f8",
                "name": "Karunanidhi",
                "milk_liters": 10,
                "lat": 10.218053295641788,
                "lng": 78.4944310010287,
                "location": "Near Viralimalai, Tamil Nadu"
              },
              {
                "id": "Thuvarankurichi-v1-f9",
                "name": "Karthikeyan",
                "milk_liters": 36,
                "lat": 10.27173945041,
                "lng": 78.0993023951257,
                "location": "Near Pudukkottai, Tamil Nadu"
              }
            ],
            "total_milk": 2680,
            "capacity": 2680,
            "distance": 66,
            "travel_time": 166,
            "utilization": 100
          },
          {
            "id": "droppable-0-2",
            "type": "TN13ST7896",
            "vehicle_number": "TN13ST7896",
            "farmers": [
              {
                "id": "Thuvarankurichi-v2-f0",
                "name": "Rajadurai",
                "milk_liters": 36,
                "lat": 10.159330568890427,
                "lng": 78.20891605903965,
                "location": "Near Madurai, Tamil Nadu"
              },
              {
                "id": "Thuvarankurichi-v2-f1",
                "name": "Veerapandi",
                "milk_liters": 22,
                "lat": 10.404441536042263,
                "lng": 78.45162442693075,
                "location": "Near Dindigul, Tamil Nadu"
              }
            ],
            "total_milk": 400,
            "capacity": 1200,
            "distance": 36.81,
            "travel_time": 39.24,
            "utilization": 33.33333333333333
          }
        ],
        "stats": {
          "vehiclesUsed": 3,
          "totalAssignedMilk": 5880,
          "fullnessPercent": 39.2,
          "lowUtilized": [
            {
              "vehicle_number": "TN13ST7896",
              "pct": 33.33
            }
          ]
        }
      },
      {
        "name": "Viralimalai",
        "total_milk": 2840,
        "capacity": 9000,
        "lat": 10.156549541560114,
        "lng": 78.0975263672753,
        "vehicles": [
          {
            "id": "droppable-1-0",
            "type": "TN12SV1485",
            "vehicle_number": "TN12SV1485",
            "farmers": [
              {
                "id": "Viralimalai-v0-f0",
                "name": "Kumarasamy",
                "milk_liters": 36,
                "lat": 10.241002610860232,
                "lng": 78.02296227506693,
                "location": "Near Pudukkottai, Tamil Nadu"
              },
              {
                "id": "Viralimalai-v0-f1",
                "name": "Sivaraj",
                "milk_liters": 31,
                "lat": 10.058713479318474,
                "lng": 78.13179599894889,
                "location": "Near Madurai, Tamil Nadu"
              },
              {
                "id": "Viralimalai-v0-f2",
                "name": "Mariappan",
                "milk_liters": 38,
                "lat": 10.424950725507587,
                "lng": 78.21501578043849,
                "location": "Near Dindigul, Tamil Nadu"
              },
              {
                "id": "Viralimalai-v0-f3",
                "name": "Muthuraman",
                "milk_liters": 13,
                "lat": 10.431925119454874,
                "lng": 78.12512821899799,
                "location": "Near Pudukkottai, Tamil Nadu"
              },
              {
                "id": "Viralimalai-v0-f4",
                "name": "Ponnusamy",
                "milk_liters": 33,
                "lat": 10.224393018641862,
                "lng": 78.22673291352383,
                "location": "Near Dindigul, Tamil Nadu"
              },
              {
                "id": "Viralimalai-v0-f5",
                "name": "Ramasamy",
                "milk_liters": 28,
                "lat": 10.230719124784454,
                "lng": 78.33757169900007,
                "location": "Near Viralimalai, Tamil Nadu"
              },
              {
                "id": "Viralimalai-v0-f6",
                "name": "Arumugham",
                "milk_liters": 10,
                "lat": 10.30938847387382,
                "lng": 78.06409798866251,
                "location": "Near Pudukkottai, Tamil Nadu"
              },
              {
                "id": "Viralimalai-v0-f7",
                "name": "Perumal",
                "milk_liters": 25,
                "lat": 10.357088837781797,
                "lng": 78.40225848490076,
                "location": "Near Viralimalai, Tamil Nadu"
              }
            ],
            "total_milk": 2600,
            "capacity": 2600,
            "distance": 128.54,
            "travel_time": 137.45,
            "utilization": 100
          },
          {
            "id": "droppable-1-1",
            "type": "CAT_F013",
            "vehicle_number": "CAT_F013",
            "farmers": [
              {
                "id": "Viralimalai-v1-f0",
                "name": "Venkatasamy",
                "milk_liters": 20,
                "lat": 10.148911707835603,
                "lng": 78.36798558075061,
                "location": "Near Madurai, Tamil Nadu"
              }
            ],
            "total_milk": 240,
            "capacity": 1200,
            "distance": 30.54,
            "travel_time": 40.55,
            "utilization": 20
          }
        ],
        "stats": {
          "vehiclesUsed": 2,
          "totalAssignedMilk": 2840,
          "fullnessPercent": 31.56,
          "lowUtilized": [
            {
              "vehicle_number": "CAT_F013",
              "pct": 20
            }
          ]
        }
      },
      {
        "name": "Melur",
        "total_milk": 9440,
        "capacity": 18000,
        "lat": 10.23335449508508,
        "lng": 78.53734334994633,
        "vehicles": [
          {
            "id": "droppable-2-0",
            "type": "CAT_F019",
            "vehicle_number": "CAT_F019",
            "farmers": [
              {
                "id": "Melur-v2-f0",
                "name": "Chandran",
                "milk_liters": 39,
                "lat": 10.208200472720424,
                "lng": 78.45577499416288,
                "location": "Near Viralimalai, Tamil Nadu"
              },
              {
                "id": "Melur-v0-f0",
                "name": "Muthupandi",
                "milk_liters": 48,
                "lat": 10.20262976503342,
                "lng": 78.45029059999726,
                "location": "Near Viralimalai, Tamil Nadu"
              },
              {
                "id": "Melur-v0-f1",
                "name": "Rajalakshmi",
                "milk_liters": 42,
                "lat": 10.33344100247151,
                "lng": 78.32553517652777,
                "location": "Near Viralimalai, Tamil Nadu"
              },
              {
                "id": "Melur-v0-f2",
                "name": "Rajendran",
                "milk_liters": 48,
                "lat": 10.004618848040973,
                "lng": 78.23110549005682,
                "location": "Near Madurai, Tamil Nadu"
              },
              {
                "id": "Melur-v0-f3",
                "name": "Arulnithi",
                "milk_liters": 27,
                "lat": 10.230095145810276,
                "lng": 78.00539234342482,
                "location": "Near Pudukkottai, Tamil Nadu"
              },
              {
                "id": "Melur-v0-f4",
                "name": "Kamalakannan",
                "milk_liters": 47,
                "lat": 10.183005880261394,
                "lng": 78.03896976996108,
                "location": "Near Madurai, Tamil Nadu"
              },
              {
                "id": "Melur-v0-f5",
                "name": "Marimuthu",
                "milk_liters": 27,
                "lat": 10.417446146562888,
                "lng": 78.19094904358238,
                "location": "Near Pudukkottai, Tamil Nadu"
              },
              {
                "id": "Melur-v0-f6",
                "name": "Ayyappan",
                "milk_liters": 43,
                "lat": 10.113211760793023,
                "lng": 78.19580985224992,
                "location": "Near Madurai, Tamil Nadu"
              },
              {
                "id": "Melur-v0-f7",
                "name": "Tharshan",
                "milk_liters": 27,
                "lat": 10.08668625433679,
                "lng": 78.31087746748082,
                "location": "Near Madurai, Tamil Nadu"
              },
              {
                "id": "Melur-v0-f8",
                "name": "Sathish",
                "milk_liters": 27,
                "lat": 10.209454508149934,
                "lng": 78.43625585897027,
                "location": "Near Viralimalai, Tamil Nadu"
              },
              {
                "id": "Melur-v0-f9",
                "name": "Manikavalan",
                "milk_liters": 20,
                "lat": 10.133148128642976,
                "lng": 78.44651107904261,
                "location": "Near Madurai, Tamil Nadu"
              },
              {
                "id": "Melur-v0-f10",
                "name": "Karuppaiah",
                "milk_liters": 29,
                "lat": 10.316471637549014,
                "lng": 78.08689074532933,
                "location": "Near Pudukkottai, Tamil Nadu"
              },
              {
                "id": "Melur-v0-f11",
                "name": "Aravind",
                "milk_liters": 44,
                "lat": 10.46663276710637,
                "lng": 78.21944796429428,
                "location": "Near Dindigul, Tamil Nadu"
              },
              {
                "id": "Melur-v0-f12",
                "name": "Velan",
                "milk_liters": 20,
                "lat": 10.471588156590427,
                "lng": 78.07783115148672,
                "location": "Near Pudukkottai, Tamil Nadu"
              },
              {
                "id": "Melur-v0-f13",
                "name": "Gokul",
                "milk_liters": 24,
                "lat": 10.244310504671178,
                "lng": 78.42017948146655,
                "location": "Near Viralimalai, Tamil Nadu"
              },
              {
                "id": "Melur-v0-f14",
                "name": "Arokiyasamy",
                "milk_liters": 48,
                "lat": 10.132877218703214,
                "lng": 78.01175279113822,
                "location": "Near Madurai, Tamil Nadu"
              },
              {
                "id": "Melur-v0-f15",
                "name": "Pugalendhi",
                "milk_liters": 31,
                "lat": 10.32555284156901,
                "lng": 78.04171110805298,
                "location": "Near Pudukkottai, Tamil Nadu"
              },
              {
                "id": "Melur-v0-f16",
                "name": "Raghuraman",
                "milk_liters": 10,
                "lat": 10.177517698703067,
                "lng": 78.05028908199209,
                "location": "Near Madurai, Tamil Nadu"
              },
              {
                "id": "Melur-v0-f17",
                "name": "Jeevan",
                "milk_liters": 27,
                "lat": 10.066549553487041,
                "lng": 78.19803024992969,
                "location": "Near Madurai, Tamil Nadu"
              }
            ],
            "total_milk": 628,
            "capacity": 5920,
            "distance": 85.05,
            "travel_time": 112.33,
            "utilization": 100
          },
          {
            "id": "droppable-2-1",
            "type": "CAT_F009",
            "vehicle_number": "CAT_F009",
            "farmers": [
              {
                "id": "Melur-v1-f0",
                "name": "Chidambaram",
                "milk_liters": 10,
                "lat": 10.23226859506349,
                "lng": 78.26188614984699,
                "location": "Near Dindigul, Tamil Nadu"
              },
              {
                "id": "Melur-v1-f1",
                "name": "Ramasubramanian",
                "milk_liters": 13,
                "lat": 10.219813701804133,
                "lng": 78.49461147546945,
                "location": "Near Viralimalai, Tamil Nadu"
              },
              {
                "id": "Melur-v1-f2",
                "name": "Muthiah",
                "milk_liters": 48,
                "lat": 10.47305661958891,
                "lng": 78.39039660538201,
                "location": "Near Dindigul, Tamil Nadu"
              },
              {
                "id": "Melur-v1-f3",
                "name": "Anand",
                "milk_liters": 28,
                "lat": 10.192706663531236,
                "lng": 78.11028496502287,
                "location": "Near Madurai, Tamil Nadu"
              },
              {
                "id": "Melur-v1-f4",
                "name": "Balamurugan",
                "milk_liters": 14,
                "lat": 10.358595608304675,
                "lng": 78.29356654455592,
                "location": "Near Dindigul, Tamil Nadu"
              },
              {
                "id": "Melur-v1-f5",
                "name": "Thanvanth",
                "milk_liters": 44,
                "lat": 10.239921566749484,
                "lng": 78.37877050913387,
                "location": "Near Viralimalai, Tamil Nadu"
              },
              {
                "id": "Melur-v1-f6",
                "name": "Sivasamy",
                "milk_liters": 19,
                "lat": 10.24289944169084,
                "lng": 78.14047955727973,
                "location": "Near Pudukkottai, Tamil Nadu"
              },
              {
                "id": "Melur-v1-f7",
                "name": "Periyasamy",
                "milk_liters": 10,
                "lat": 10.198674030490576,
                "lng": 78.06689652664613,
                "location": "Near Madurai, Tamil Nadu"
              }
            ],
            "total_milk": 2080,
            "capacity": 2080,
            "distance": 57.96,
            "travel_time": 71.72,
            "utilization": 100
          },
          {
            "id": "droppable-2-2",
            "type": "CAT_F007",
            "vehicle_number": "CAT_F007",
            "farmers": [
              {
                "id": "Melur-v2-f1",
                "name": "Sathiya",
                "milk_liters": 35,
                "lat": 10.384032701805436,
                "lng": 78.46508309655229,
                "location": "Near Viralimalai, Tamil Nadu"
              },
              {
                "id": "Melur-v2-f2",
                "name": "Ramalingam",
                "milk_liters": 41,
                "lat": 10.228222997944133,
                "lng": 78.16084166293672,
                "location": "Near Pudukkottai, Tamil Nadu"
              },
              {
                "id": "Melur-v2-f3",
                "name": "Periyapalan",
                "milk_liters": 34,
                "lat": 10.005635833634917,
                "lng": 78.17192247963435,
                "location": "Near Madurai, Tamil Nadu"
              },
              {
                "id": "Melur-v2-f4",
                "name": "Siva",
                "milk_liters": 17,
                "lat": 10.095072266415103,
                "lng": 78.40635499242639,
                "location": "Near Madurai, Tamil Nadu"
              },
              {
                "id": "Melur-v2-f5",
                "name": "Mani",
                "milk_liters": 36,
                "lat": 10.172675588888998,
                "lng": 78.11077221101925,
                "location": "Near Madurai, Tamil Nadu"
              },
              {
                "id": "Melur-v2-f6",
                "name": "Prabhakar",
                "milk_liters": 23,
                "lat": 10.157706487612229,
                "lng": 78.29346194126893,
                "location": "Near Madurai, Tamil Nadu"
              }
            ],
            "total_milk": 186,
            "capacity": 1520,
            "distance": 77.94,
            "travel_time": 92.99,
            "utilization": 94.73684210526315
          }
        ],
        "stats": {
          "vehiclesUsed": 3,
          "totalAssignedMilk": 2894,
          "fullnessPercent": 16.08,
          "lowUtilized": []
        }
      },
      {
        "name": "Madurai",
        "total_milk": 8080,
        "capacity": 25000,
        "lat": 10.100777318921637,
        "lng": 78.38545332824683,
        "vehicles": [
          {
            "id": "droppable-3-0",
            "type": "CAT_F020",
            "vehicle_number": "CAT_F020",
            "farmers": [
              {
                "id": "Madurai-v0-f0",
                "name": "Karuthapandi",
                "milk_liters": 23,
                "lat": 10.480774055127364,
                "lng": 78.1137474871513,
                "location": "Near Pudukkottai, Tamil Nadu"
              },
              {
                "id": "Madurai-v0-f1",
                "name": "Kaliyaperumal",
                "milk_liters": 30,
                "lat": 10.223723892230417,
                "lng": 78.36070868812868,
                "location": "Near Viralimalai, Tamil Nadu"
              },
              {
                "id": "Madurai-v0-f2",
                "name": "Venkataraman",
                "milk_liters": 13,
                "lat": 10.268845540186444,
                "lng": 78.235918429362,
                "location": "Near Dindigul, Tamil Nadu"
              },
              {
                "id": "Madurai-v0-f3",
                "name": "Selvakumar",
                "milk_liters": 20,
                "lat": 10.21715730482944,
                "lng": 78.16988081773587,
                "location": "Near Pudukkottai, Tamil Nadu"
              },
              {
                "id": "Madurai-v0-f4",
                "name": "Jayanthan",
                "milk_liters": 43,
                "lat": 10.05125862592659,
                "lng": 78.3016878230141,
                "location": "Near Madurai, Tamil Nadu"
              },
              {
                "id": "Madurai-v0-f5",
                "name": "Ramajayan",
                "milk_liters": 11,
                "lat": 10.282855562117286,
                "lng": 78.19477713970088,
                "location": "Near Pudukkottai, Tamil Nadu"
              },
              {
                "id": "Madurai-v0-f6",
                "name": "Ramarajan",
                "milk_liters": 21,
                "lat": 10.330681666778476,
                "lng": 78.38104899985969,
                "location": "Near Viralimalai, Tamil Nadu"
              },
              {
                "id": "Madurai-v0-f7",
                "name": "Mahalingam",
                "milk_liters": 17,
                "lat": 10.104333921946179,
                "lng": 78.14554650872287,
                "location": "Near Madurai, Tamil Nadu"
              },
              {
                "id": "Madurai-v0-f8",
                "name": "Jagadeesan",
                "milk_liters": 25,
                "lat": 10.043970670330499,
                "lng": 78.39041220453178,
                "location": "Near Madurai, Tamil Nadu"
              },
              {
                "id": "Madurai-v0-f9",
                "name": "Palanisamy",
                "milk_liters": 33,
                "lat": 10.48043694121997,
                "lng": 78.31969792817749,
                "location": "Near Dindigul, Tamil Nadu"
              },
              {
                "id": "Madurai-v0-f10",
                "name": "Selvaraj",
                "milk_liters": 26,
                "lat": 10.464471629268873,
                "lng": 78.44904796031912,
                "location": "Near Dindigul, Tamil Nadu"
              },
              {
                "id": "Madurai-v0-f11",
                "name": "Kandasamy",
                "milk_liters": 17,
                "lat": 10.322839567086547,
                "lng": 78.35957589642042,
                "location": "Near Viralimalai, Tamil Nadu"
              },
              {
                "id": "Madurai-v0-f12",
                "name": "Krishnamoorthy",
                "milk_liters": 27,
                "lat": 10.481348662739753,
                "lng": 78.29192634325399,
                "location": "Near Dindigul, Tamil Nadu"
              },
              {
                "id": "Madurai-v0-f13",
                "name": "Shankar",
                "milk_liters": 33,
                "lat": 10.270178464198084,
                "lng": 78.48000002358977,
                "location": "Near Viralimalai, Tamil Nadu"
              },
              {
                "id": "Madurai-v0-f14",
                "name": "Natarajan",
                "milk_liters": 14,
                "lat": 10.27811055987492,
                "lng": 78.26480088313527,
                "location": "Near Dindigul, Tamil Nadu"
              },
              {
                "id": "Madurai-v0-f15",
                "name": "Arulkumar",
                "milk_liters": 27,
                "lat": 10.000879085006625,
                "lng": 78.48373531768905,
                "location": "Near Madurai, Tamil Nadu"
              },
              {
                "id": "Madurai-v0-f16",
                "name": "Murugappan",
                "milk_liters": 18,
                "lat": 10.242318590745983,
                "lng": 78.43062340112628,
                "location": "Near Viralimalai, Tamil Nadu"
              },
              {
                "id": "Madurai-v0-f17",
                "name": "Yogeshwaran",
                "milk_liters": 23,
                "lat": 10.122958532107289,
                "lng": 78.28382596909184,
                "location": "Near Madurai, Tamil Nadu"
              }
            ],
            "total_milk": 5920,
            "capacity": 5920,
            "distance": 55.55,
            "travel_time": 83.47,
            "utilization": 100
          },
          {
            "id": "droppable-3-1",
            "type": "TN17ST1478",
            "vehicle_number": "TN17ST1478",
            "farmers": [
              {
                "id": "Madurai-v1-f0",
                "name": "Rathi",
                "milk_liters": 24,
                "lat": 10.161277030966113,
                "lng": 78.1430693449309,
                "location": "Near Madurai, Tamil Nadu"
              },
              {
                "id": "Madurai-v1-f1",
                "name": "Karuppan",
                "milk_liters": 30,
                "lat": 10.45572906635998,
                "lng": 78.27004356515803,
                "location": "Near Dindigul, Tamil Nadu"
              },
              {
                "id": "Madurai-v1-f2",
                "name": "Arumughan",
                "milk_liters": 45,
                "lat": 10.370771211721966,
                "lng": 78.1055663844846,
                "location": "Near Pudukkottai, Tamil Nadu"
              },
              {
                "id": "Madurai-v1-f3",
                "name": "Velusamy",
                "milk_liters": 19,
                "lat": 10.291838722243003,
                "lng": 78.12315191671598,
                "location": "Near Pudukkottai, Tamil Nadu"
              },
              {
                "id": "Madurai-v1-f4",
                "name": "Ramalingan",
                "milk_liters": 21,
                "lat": 10.099545610955813,
                "lng": 78.45899098449344,
                "location": "Near Madurai, Tamil Nadu"
              },
              {
                "id": "Madurai-v1-f5",
                "name": "Kuppusamy",
                "milk_liters": 24,
                "lat": 10.026133578243755,
                "lng": 78.32146357755491,
                "location": "Near Madurai, Tamil Nadu"
              },
              {
                "id": "Madurai-v1-f6",
                "name": "Thanaraj",
                "milk_liters": 48,
                "lat": 10.486179173900878,
                "lng": 78.30890168094643,
                "location": "Near Dindigul, Tamil Nadu"
              },
              {
                "id": "Madurai-v1-f7",
                "name": "Thavapalan",
                "milk_liters": 28,
                "lat": 10.412943704066995,
                "lng": 78.44206927820056,
                "location": "Near Dindigul, Tamil Nadu"
              },
              {
                "id": "Madurai-v1-f8",
                "name": "Ayyanar",
                "milk_liters": 39,
                "lat": 10.430497901198923,
                "lng": 78.03051177678266,
                "location": "Near Pudukkottai, Tamil Nadu"
              }
            ],
            "total_milk": 2160,
            "capacity": 2200,
            "distance": 34.38,
            "travel_time": 51.78,
            "utilization": 98.18181818181819
          }
        ],
        "stats": {
          "vehiclesUsed": 2,
          "totalAssignedMilk": 8080,
          "fullnessPercent": 32.32,
          "lowUtilized": []
        }
      },
      {
        "name": "Singampunari",
        "total_milk": 5640,
        "capacity": 20000,
        "lat": 10.2027973236917,
        "lng": 78.48504757609905,
        "vehicles": [
          {
            "id": "droppable-4-0",
            "type": "CAT_F017",
            "vehicle_number": "CAT_F017",
            "farmers": [
              {
                "id": "Singampunari-v0-f0",
                "name": "Ravichandran",
                "milk_liters": 37,
                "lat": 10.031096856061197,
                "lng": 78.25788880502336,
                "location": "Near Madurai, Tamil Nadu"
              },
              {
                "id": "Singampunari-v0-f1",
                "name": "Annamalai",
                "milk_liters": 33,
                "lat": 10.479089550540104,
                "lng": 78.28434060768994,
                "location": "Near Dindigul, Tamil Nadu"
              },
              {
                "id": "Singampunari-v0-f2",
                "name": "Sakthivelan",
                "milk_liters": 23,
                "lat": 10.35236678941232,
                "lng": 78.413749336959,
                "location": "Near Viralimalai, Tamil Nadu"
              },
              {
                "id": "Singampunari-v0-f3",
                "name": "Manikandan",
                "milk_liters": 34,
                "lat": 10.15649109105306,
                "lng": 78.44499569530397,
                "location": "Near Madurai, Tamil Nadu"
              },
              {
                "id": "Singampunari-v0-f4",
                "name": "Vaidyanathan",
                "milk_liters": 49,
                "lat": 10.4084591671809,
                "lng": 78.02043213076416,
                "location": "Near Pudukkottai, Tamil Nadu"
              },
              {
                "id": "Singampunari-v0-f5",
                "name": "Karthik",
                "milk_liters": 41,
                "lat": 10.483422279493487,
                "lng": 78.02288550169474,
                "location": "Near Pudukkottai, Tamil Nadu"
              },
              {
                "id": "Singampunari-v0-f6",
                "name": "Devarajan",
                "milk_liters": 28,
                "lat": 10.118027209348211,
                "lng": 78.36819900828723,
                "location": "Near Madurai, Tamil Nadu"
              },
              {
                "id": "Singampunari-v0-f7",
                "name": "Jegan",
                "milk_liters": 44,
                "lat": 10.003581570774417,
                "lng": 78.37063382755088,
                "location": "Near Madurai, Tamil Nadu"
              }
            ],
            "total_milk": 2800,
            "capacity": 2800,
            "distance": 72.19,
            "travel_time": 72.65,
            "utilization": 100
          },
          {
            "id": "droppable-4-1",
            "type": "TN15TV1256",
            "vehicle_number": "TN15TV1256",
            "farmers": [
              {
                "id": "Singampunari-v1-f0",
                "name": "Raja",
                "milk_liters": 31,
                "lat": 10.170262467853473,
                "lng": 78.1494934415415,
                "location": "Near Madurai, Tamil Nadu"
              },
              {
                "id": "Singampunari-v1-f1",
                "name": "Azhagan",
                "milk_liters": 47,
                "lat": 10.227827470762945,
                "lng": 78.25563767472696,
                "location": "Near Dindigul, Tamil Nadu"
              },
              {
                "id": "Singampunari-v1-f2",
                "name": "Kasinathan",
                "milk_liters": 44,
                "lat": 10.159767582574945,
                "lng": 78.23021041069516,
                "location": "Near Madurai, Tamil Nadu"
              },
              {
                "id": "Singampunari-v1-f3",
                "name": "Anbu",
                "milk_liters": 31,
                "lat": 10.220384411190434,
                "lng": 78.14307289617368,
                "location": "Near Pudukkottai, Tamil Nadu"
              },
              {
                "id": "Singampunari-v1-f4",
                "name": "Muthukumar",
                "milk_liters": 43,
                "lat": 10.423544770682682,
                "lng": 78.32253646620187,
                "location": "Near Dindigul, Tamil Nadu"
              },
              {
                "id": "Singampunari-v1-f5",
                "name": "Jayakumar",
                "milk_liters": 18,
                "lat": 10.07758768458374,
                "lng": 78.34109058146382,
                "location": "Near Madurai, Tamil Nadu"
              },
              {
                "id": "Singampunari-v1-f6",
                "name": "Arvind",
                "milk_liters": 25,
                "lat": 10.36596126190949,
                "lng": 78.48811712599861,
                "location": "Near Viralimalai, Tamil Nadu"
              }
            ],
            "total_milk": 2000,
            "capacity": 2000,
            "distance": 62.71,
            "travel_time": 63.39,
            "utilization": 100
          },
          {
            "id": "droppable-4-2",
            "type": "CAT_F008",
            "vehicle_number": "CAT_F008",
            "farmers": [
              {
                "id": "Singampunari-v2-f0",
                "name": "Jagannathan",
                "milk_liters": 34,
                "lat": 10.424760357272579,
                "lng": 78.06750628920167,
                "location": "Near Pudukkottai, Tamil Nadu"
              },
              {
                "id": "Singampunari-v2-f1",
                "name": "Rajaraman",
                "milk_liters": 14,
                "lat": 10.463134248049903,
                "lng": 78.17774982205665,
                "location": "Near Pudukkottai, Tamil Nadu"
              },
              {
                "id": "Singampunari-v2-f2",
                "name": "Sundar",
                "milk_liters": 35,
                "lat": 10.07588007337757,
                "lng": 78.45050244690479,
                "location": "Near Madurai, Tamil Nadu"
              },
              {
                "id": "Singampunari-v2-f3",
                "name": "Ramachandran",
                "milk_liters": 20,
                "lat": 10.041994054129942,
                "lng": 78.34141725895036,
                "location": "Near Madurai, Tamil Nadu"
              }
            ],
            "total_milk": 840,
            "capacity": 1320,
            "distance": 33.68,
            "travel_time": 40.77,
            "utilization": 63.63636363636363
          }
        ],
        "stats": {
          "vehiclesUsed": 3,
          "totalAssignedMilk": 5640,
          "fullnessPercent": 28.2,
          "lowUtilized": [
            {
              "vehicle_number": "CAT_F008",
              "pct": 63.64
            }
          ]
        }
      },
      {
        "name": "Ponnamaravathi Bus stand",
        "total_milk": 4840,
        "capacity": 30000,
        "lat": 10.275104022298278,
        "lng": 78.5755497207548,
        "vehicles": [
          {
            "id": "droppable-5-0",
            "type": "CAT_F015",
            "vehicle_number": "CAT_F015",
            "farmers": [
              {
                "id": "Ponnamaravathi Bus stand-v0-f0",
                "name": "Subash",
                "milk_liters": 29,
                "lat": 10.400937268612097,
                "lng": 78.21782841817613,
                "location": "Near Dindigul, Tamil Nadu"
              },
              {
                "id": "Ponnamaravathi Bus stand-v0-f1",
                "name": "Dhanapal",
                "milk_liters": 45,
                "lat": 10.47652607552179,
                "lng": 78.49210229201437,
                "location": "Near Dindigul, Tamil Nadu"
              },
              {
                "id": "Ponnamaravathi Bus stand-v0-f2",
                "name": "Suthan",
                "milk_liters": 15,
                "lat": 10.160568373919453,
                "lng": 78.120710465352,
                "location": "Near Madurai, Tamil Nadu"
              },
              {
                "id": "Ponnamaravathi Bus stand-v0-f3",
                "name": "Vasu",
                "milk_liters": 11,
                "lat": 10.446566104724146,
                "lng": 78.22464774211629,
                "location": "Near Dindigul, Tamil Nadu"
              },
              {
                "id": "Ponnamaravathi Bus stand-v0-f4",
                "name": "Shanmugam",
                "milk_liters": 39,
                "lat": 10.300473564957699,
                "lng": 78.08679453882671,
                "location": "Near Pudukkottai, Tamil Nadu"
              },
              {
                "id": "Ponnamaravathi Bus stand-v0-f5",
                "name": "Murali",
                "milk_liters": 39,
                "lat": 10.469706142136246,
                "lng": 78.14553612512015,
                "location": "Near Pudukkottai, Tamil Nadu"
              }
            ],
            "total_milk": 2200,
            "capacity": 2200,
            "distance": 76.03,
            "travel_time": 87.57,
            "utilization": 100
          },
          {
            "id": "droppable-5-1",
            "type": "CAT_F014",
            "vehicle_number": "CAT_F014",
            "farmers": [
              {
                "id": "Ponnamaravathi Bus stand-v1-f0",
                "name": "Narayanan",
                "milk_liters": 18,
                "lat": 10.326917310714464,
                "lng": 78.00129569232537,
                "location": "Near Pudukkottai, Tamil Nadu"
              },
              {
                "id": "Ponnamaravathi Bus stand-v1-f1",
                "name": "Srinivasan",
                "milk_liters": 21,
                "lat": 10.054834971869333,
                "lng": 78.18997051082357,
                "location": "Near Madurai, Tamil Nadu"
              },
              {
                "id": "Ponnamaravathi Bus stand-v1-f2",
                "name": "Kannan",
                "milk_liters": 10,
                "lat": 10.36008421030001,
                "lng": 78.43855947692829,
                "location": "Near Viralimalai, Tamil Nadu"
              },
              {
                "id": "Ponnamaravathi Bus stand-v1-f3",
                "name": "Venkatesh",
                "milk_liters": 13,
                "lat": 10.32735122829451,
                "lng": 78.48142184809195,
                "location": "Near Viralimalai, Tamil Nadu"
              },
              {
                "id": "Ponnamaravathi Bus stand-v1-f4",
                "name": "Saravanan",
                "milk_liters": 24,
                "lat": 10.4577597999453,
                "lng": 78.25147893944585,
                "location": "Near Dindigul, Tamil Nadu"
              },
              {
                "id": "Ponnamaravathi Bus stand-v1-f5",
                "name": "Suresh",
                "milk_liters": 26,
                "lat": 10.144407834078704,
                "lng": 78.06943025491678,
                "location": "Near Madurai, Tamil Nadu"
              },
              {
                "id": "Ponnamaravathi Bus stand-v1-f6",
                "name": "Subramanian",
                "milk_liters": 11,
                "lat": 10.46995137367478,
                "lng": 78.30161398958232,
                "location": "Near Dindigul, Tamil Nadu"
              }
            ],
            "total_milk": 1960,
            "capacity": 2000,
            "distance": 74.42,
            "travel_time": 84.38,
            "utilization": 98
          },
          {
            "id": "droppable-5-2",
            "type": "TN12SV1986",
            "vehicle_number": "TN12SV1986",
            "farmers": [
              {
                "id": "Ponnamaravathi Bus stand-v2-f0",
                "name": "Pandiyan",
                "milk_liters": 40,
                "lat": 10.090840860653564,
                "lng": 78.0300446247372,
                "location": "Near Madurai, Tamil Nadu"
              },
              {
                "id": "Ponnamaravathi Bus stand-v2-f1",
                "name": "Kamaraj",
                "milk_liters": 19,
                "lat": 10.292793831469782,
                "lng": 78.25748663164732,
                "location": "Near Dindigul, Tamil Nadu"
              },
              {
                "id": "Ponnamaravathi Bus stand-v2-f2",
                "name": "Sakthivel",
                "milk_liters": 47,
                "lat": 10.323094791070218,
                "lng": 78.0309421171309,
                "location": "Near Pudukkottai, Tamil Nadu"
              }
            ],
            "total_milk": 680,
            "capacity": 1600,
            "distance": 60.67,
            "travel_time": 70.74,
            "utilization": 42.5
          }
        ],
        "stats": {
          "vehiclesUsed": 3,
          "totalAssignedMilk": 4840,
          "fullnessPercent": 16.13,
          "lowUtilized": [
            {
              "vehicle_number": "TN12SV1986",
              "pct": 42.5
            }
          ]
        }
      }
    ],
    "timestamp": "2025-11-13T17:08:09.819445+00:00"
  }
}